{
  "num_nodes": 812,
  "num_features": 1,
  "num_timesteps": 124,
  "time_range": {
    "start": "2024-11-01 00:00:00",
    "end": "2024-11-06 03:00:00",
    "freq": "H"
  },
  "stops_info": {
    "GGB239000001": {
      "index": 0,
      "name": "꿈에그린아파트",
      "lat": 37.8090167,
      "lon": 127.3529833
    },
    "GGB239000002": {
      "index": 1,
      "name": "당골입구",
      "lat": 37.7103833,
      "lon": 127.5405
    },
    "GGB239000003": {
      "index": 2,
      "name": "꽃넘이길삼거리",
      "lat": 37.8980667,
      "lon": 127.5232333
    },
    "GGB239000004": {
      "index": 3,
      "name": "제이정동빌라",
      "lat": 37.8388333,
      "lon": 127.5053
    },
    "GGB239000005": {
      "index": 4,
      "name": "구정동입구",
      "lat": 37.7577667,
      "lon": 127.39675
    },
    "GGB239000006": {
      "index": 5,
      "name": "에덴빌라4차",
      "lat": 37.8341333,
      "lon": 127.5059333
    },
    "GGB239000007": {
      "index": 6,
      "name": "향군회관",
      "lat": 37.8274333,
      "lon": 127.5163667
    },
    "GGB239000008": {
      "index": 7,
      "name": "중색교회앞",
      "lat": 37.8029333,
      "lon": 127.4847333
    },
    "GGB239000009": {
      "index": 8,
      "name": "태봉마을",
      "lat": 37.8049333,
      "lon": 127.47965
    },
    "GGB239000010": {
      "index": 9,
      "name": "진양마을",
      "lat": 37.8091833,
      "lon": 127.4746333
    },
    "GGB239000011": {
      "index": 10,
      "name": "대금사입구",
      "lat": 37.8138833,
      "lon": 127.4714
    },
    "GGB239000012": {
      "index": 11,
      "name": "두밀삼거리",
      "lat": 37.8160667,
      "lon": 127.4579333
    },
    "GGB239000013": {
      "index": 12,
      "name": "샛두밀",
      "lat": 37.8136,
      "lon": 127.44575
    },
    "GGB239000015": {
      "index": 13,
      "name": "샛두밀",
      "lat": 37.8136833,
      "lon": 127.4456833
    },
    "GGB239000016": {
      "index": 14,
      "name": "회관앞",
      "lat": 37.8043,
      "lon": 127.4827833
    },
    "GGB239000017": {
      "index": 15,
      "name": "중색교회앞",
      "lat": 37.803,
      "lon": 127.48475
    },
    "GGB239000018": {
      "index": 16,
      "name": "안말",
      "lat": 37.93615,
      "lon": 127.5590167
    },
    "GGB239000019": {
      "index": 17,
      "name": "버드라치",
      "lat": 37.9384833,
      "lon": 127.53965
    },
    "GGB239000020": {
      "index": 18,
      "name": "노씨터입구",
      "lat": 37.9498333,
      "lon": 127.5347
    },
    "GGB239000021": {
      "index": 19,
      "name": "화악2리마을회관",
      "lat": 37.953,
      "lon": 127.5316333
    },
    "GGB239000022": {
      "index": 20,
      "name": "신촌말",
      "lat": 37.9345333,
      "lon": 127.5426833
    },
    "GGB239000023": {
      "index": 21,
      "name": "논남",
      "lat": 37.9684667,
      "lon": 127.4222833
    },
    "GGB239000024": {
      "index": 22,
      "name": "소락개마을",
      "lat": 37.9651,
      "lon": 127.4443167
    },
    "GGB239000025": {
      "index": 23,
      "name": "성관사",
      "lat": 37.9638833,
      "lon": 127.4488833
    },
    "GGB239000026": {
      "index": 24,
      "name": "구나무골",
      "lat": 37.8970333,
      "lon": 127.49255
    },
    "GGB239000027": {
      "index": 25,
      "name": "한터마을",
      "lat": 37.90445,
      "lon": 127.4763167
    },
    "GGB239000031": {
      "index": 26,
      "name": "백둔리종점",
      "lat": 37.9088667,
      "lon": 127.4440167
    },
    "GGB239000032": {
      "index": 27,
      "name": "양지마을",
      "lat": 37.9070667,
      "lon": 127.4479667
    },
    "GGB239000033": {
      "index": 28,
      "name": "평반",
      "lat": 37.9041833,
      "lon": 127.4543833
    },
    "GGB239000034": {
      "index": 29,
      "name": "연인산캠핑장",
      "lat": 37.9025333,
      "lon": 127.4610667
    },
    "GGB239000035": {
      "index": 30,
      "name": "구나무골",
      "lat": 37.8970833,
      "lon": 127.4924
    },
    "GGB239000036": {
      "index": 31,
      "name": "제령리하촌",
      "lat": 37.8940833,
      "lon": 127.53965
    },
    "GGB239000037": {
      "index": 32,
      "name": "홍은교회앞",
      "lat": 37.8992833,
      "lon": 127.5238833
    },
    "GGB239000038": {
      "index": 33,
      "name": "제령리약수터",
      "lat": 37.9013833,
      "lon": 127.5178667
    },
    "GGB239000039": {
      "index": 34,
      "name": "백둔리입구",
      "lat": 37.8989167,
      "lon": 127.5039833
    },
    "GGB239000040": {
      "index": 35,
      "name": "오목벌",
      "lat": 37.9106333,
      "lon": 127.4942667
    },
    "GGB239000041": {
      "index": 36,
      "name": "오목골",
      "lat": 37.9182,
      "lon": 127.49625
    },
    "GGB239000042": {
      "index": 37,
      "name": "양지말",
      "lat": 37.9296833,
      "lon": 127.49305
    },
    "GGB239000043": {
      "index": 38,
      "name": "명지산입구",
      "lat": 37.9355,
      "lon": 127.4894667
    },
    "GGB239000045": {
      "index": 39,
      "name": "낡은터",
      "lat": 37.9510833,
      "lon": 127.4798667
    },
    "GGB239000046": {
      "index": 40,
      "name": "관청마을",
      "lat": 37.9585333,
      "lon": 127.4720167
    },
    "GGB239000047": {
      "index": 41,
      "name": "미약골",
      "lat": 37.9645167,
      "lon": 127.4677333
    },
    "GGB239000048": {
      "index": 42,
      "name": "백자동유원지",
      "lat": 37.9657667,
      "lon": 127.4644333
    },
    "GGB239000049": {
      "index": 43,
      "name": "명화동삼거리",
      "lat": 37.9694,
      "lon": 127.45875
    },
    "GGB239000050": {
      "index": 44,
      "name": "송산리",
      "lat": 37.6866167,
      "lon": 127.5265833
    },
    "GGB239000051": {
      "index": 45,
      "name": "점말",
      "lat": 37.9739167,
      "lon": 127.4503833
    },
    "GGB239000052": {
      "index": 46,
      "name": "용수동종점",
      "lat": 37.98685,
      "lon": 127.4374667
    },
    "GGB239000053": {
      "index": 47,
      "name": "가림마을",
      "lat": 37.9766833,
      "lon": 127.4438667
    },
    "GGB239000054": {
      "index": 48,
      "name": "점말",
      "lat": 37.9740833,
      "lon": 127.45045
    },
    "GGB239000055": {
      "index": 49,
      "name": "관청마을",
      "lat": 37.9585167,
      "lon": 127.47225
    },
    "GGB239000056": {
      "index": 50,
      "name": "바깥말",
      "lat": 37.9539833,
      "lon": 127.4763667
    },
    "GGB239000057": {
      "index": 51,
      "name": "명지산참숯",
      "lat": 37.9528667,
      "lon": 127.4775667
    },
    "GGB239000058": {
      "index": 52,
      "name": "도솔천사",
      "lat": 37.9421,
      "lon": 127.4885
    },
    "GGB239000059": {
      "index": 53,
      "name": "양지말",
      "lat": 37.9301,
      "lon": 127.49285
    },
    "GGB239000060": {
      "index": 54,
      "name": "대촌마을",
      "lat": 37.9246667,
      "lon": 127.4943833
    },
    "GGB239000062": {
      "index": 55,
      "name": "제령리상촌",
      "lat": 37.8965,
      "lon": 127.5288333
    },
    "GGB239000063": {
      "index": 56,
      "name": "제령리마을회관앞",
      "lat": 37.8952167,
      "lon": 127.5333167
    },
    "GGB239000064": {
      "index": 57,
      "name": "산수녹원",
      "lat": 37.8352167,
      "lon": 127.4986333
    },
    "GGB239000066": {
      "index": 58,
      "name": "경반리회관",
      "lat": 37.83305,
      "lon": 127.4921833
    },
    "GGB239000067": {
      "index": 59,
      "name": "경반리",
      "lat": 37.8329833,
      "lon": 127.4957167
    },
    "GGB239000068": {
      "index": 60,
      "name": "산수녹원",
      "lat": 37.8352333,
      "lon": 127.4985667
    },
    "GGB239000069": {
      "index": 61,
      "name": "승안리입구",
      "lat": 37.8403833,
      "lon": 127.5058833
    },
    "GGB239000071": {
      "index": 62,
      "name": "경반리입구",
      "lat": 37.8386833,
      "lon": 127.4989
    },
    "GGB239000072": {
      "index": 63,
      "name": "자리대",
      "lat": 37.8417333,
      "lon": 127.4915333
    },
    "GGB239000073": {
      "index": 64,
      "name": "점말마을",
      "lat": 37.8426833,
      "lon": 127.4896333
    },
    "GGB239000074": {
      "index": 65,
      "name": "신천말",
      "lat": 37.8459,
      "lon": 127.4893333
    },
    "GGB239000075": {
      "index": 66,
      "name": "연인산도립공원",
      "lat": 37.8488333,
      "lon": 127.4864833
    },
    "GGB239000077": {
      "index": 67,
      "name": "용추폭포",
      "lat": 37.8554,
      "lon": 127.4814667
    },
    "GGB239000078": {
      "index": 68,
      "name": "용추종점",
      "lat": 37.8584333,
      "lon": 127.4750333
    },
    "GGB239000079": {
      "index": 69,
      "name": "서넘이",
      "lat": 37.8586,
      "lon": 127.4825667
    },
    "GGB239000080": {
      "index": 70,
      "name": "관사앞",
      "lat": 37.8448167,
      "lon": 127.4880167
    },
    "GGB239000081": {
      "index": 71,
      "name": "구가옥",
      "lat": 37.8392333,
      "lon": 127.495
    },
    "GGB239000082": {
      "index": 72,
      "name": "승안리입구",
      "lat": 37.84045,
      "lon": 127.5058333
    },
    "GGB239000083": {
      "index": 73,
      "name": "숯벌",
      "lat": 37.8590833,
      "lon": 127.5236
    },
    "GGB239000084": {
      "index": 74,
      "name": "부녀가게앞",
      "lat": 37.8523,
      "lon": 127.50155
    },
    "GGB239000085": {
      "index": 75,
      "name": "아랫말삼거리",
      "lat": 37.8483333,
      "lon": 127.4984
    },
    "GGB239000086": {
      "index": 76,
      "name": "헌병대앞",
      "lat": 37.8447,
      "lon": 127.5027667
    },
    "GGB239000087": {
      "index": 77,
      "name": "읍내10리",
      "lat": 37.8383833,
      "lon": 127.5072833
    },
    "GGB239000088": {
      "index": 78,
      "name": "계량리",
      "lat": 37.8407333,
      "lon": 127.5062667
    },
    "GGB239000089": {
      "index": 79,
      "name": "엽광촌",
      "lat": 37.8470667,
      "lon": 127.50595
    },
    "GGB239000090": {
      "index": 80,
      "name": "마장1리",
      "lat": 37.8535667,
      "lon": 127.5062167
    },
    "GGB239000092": {
      "index": 81,
      "name": "마장초교",
      "lat": 37.85845,
      "lon": 127.5160167
    },
    "GGB239000093": {
      "index": 82,
      "name": "노루목고개",
      "lat": 37.8672333,
      "lon": 127.5213
    },
    "GGB239000094": {
      "index": 83,
      "name": "등무터",
      "lat": 37.8739,
      "lon": 127.5231167
    },
    "GGB239000095": {
      "index": 84,
      "name": "정미소",
      "lat": 37.8764833,
      "lon": 127.5281667
    },
    "GGB239000096": {
      "index": 85,
      "name": "정미소",
      "lat": 37.8763833,
      "lon": 127.52835
    },
    "GGB239000097": {
      "index": 86,
      "name": "창말마을",
      "lat": 37.7264167,
      "lon": 127.4285333
    },
    "GGB239000098": {
      "index": 87,
      "name": "창말마을",
      "lat": 37.7262667,
      "lon": 127.4286833
    },
    "GGB239000099": {
      "index": 88,
      "name": "영양교앞",
      "lat": 37.8216833,
      "lon": 127.3500667
    },
    "GGB239000100": {
      "index": 89,
      "name": "어비계곡종점",
      "lat": 37.5917667,
      "lon": 127.5113167
    },
    "GGB239000102": {
      "index": 90,
      "name": "마일1리회관",
      "lat": 37.8516167,
      "lon": 127.3785
    },
    "GGB239000104": {
      "index": 91,
      "name": "상봉수리",
      "lat": 37.8606667,
      "lon": 127.2901667
    },
    "GGB239000105": {
      "index": 92,
      "name": "태봉리",
      "lat": 37.8202167,
      "lon": 127.3294833
    },
    "GGB239000106": {
      "index": 93,
      "name": "원흥리",
      "lat": 37.8211667,
      "lon": 127.3234333
    },
    "GGB239000107": {
      "index": 94,
      "name": "율길삼거리",
      "lat": 37.8316167,
      "lon": 127.2920833
    },
    "GGB239000108": {
      "index": 95,
      "name": "율길초교",
      "lat": 37.8383333,
      "lon": 127.2879167
    },
    "GGB239000109": {
      "index": 96,
      "name": "율길초교",
      "lat": 37.8383333,
      "lon": 127.2881667
    },
    "GGB239000111": {
      "index": 97,
      "name": "태봉리",
      "lat": 37.8202833,
      "lon": 127.3293667
    },
    "GGB239000112": {
      "index": 98,
      "name": "고성리.현대백화점인재개발원",
      "lat": 37.71335,
      "lon": 127.5027333
    },
    "GGB239000113": {
      "index": 99,
      "name": "산월랑종점",
      "lat": 37.84695,
      "lon": 127.3428667
    },
    "GGB239000114": {
      "index": 100,
      "name": "안곡사거리",
      "lat": 37.8276833,
      "lon": 127.3476167
    },
    "GGB239000115": {
      "index": 101,
      "name": "안곡마을",
      "lat": 37.8319167,
      "lon": 127.3451667
    },
    "GGB239000116": {
      "index": 102,
      "name": "양추",
      "lat": 37.8524167,
      "lon": 127.3559833
    },
    "GGB239000117": {
      "index": 103,
      "name": "운악산입구",
      "lat": 37.8646,
      "lon": 127.3500833
    },
    "GGB239000118": {
      "index": 104,
      "name": "운악산.현등사입구",
      "lat": 37.8679833,
      "lon": 127.3545
    },
    "GGB239000119": {
      "index": 105,
      "name": "노체삼거리",
      "lat": 37.8743667,
      "lon": 127.3576333
    },
    "GGB239000120": {
      "index": 106,
      "name": "구운악분교",
      "lat": 37.88155,
      "lon": 127.3619833
    },
    "GGB239000121": {
      "index": 107,
      "name": "행정마을",
      "lat": 37.8962167,
      "lon": 127.3689333
    },
    "GGB239000123": {
      "index": 108,
      "name": "귀목종점",
      "lat": 37.9225667,
      "lon": 127.3933833
    },
    "GGB239000124": {
      "index": 109,
      "name": "다락터",
      "lat": 37.9195,
      "lon": 127.3905667
    },
    "GGB239000125": {
      "index": 110,
      "name": "장재울",
      "lat": 37.9135167,
      "lon": 127.38325
    },
    "GGB239000126": {
      "index": 111,
      "name": "상판리회관",
      "lat": 37.9013833,
      "lon": 127.3729333
    },
    "GGB239000127": {
      "index": 112,
      "name": "우무골",
      "lat": 37.88655,
      "lon": 127.3652667
    },
    "GGB239000128": {
      "index": 113,
      "name": "구운악분교",
      "lat": 37.8816333,
      "lon": 127.3621333
    },
    "GGB239000129": {
      "index": 114,
      "name": "노체2교앞",
      "lat": 37.8793167,
      "lon": 127.3600167
    },
    "GGB239000130": {
      "index": 115,
      "name": "만나교회",
      "lat": 37.8606,
      "lon": 127.3504167
    },
    "GGB239000131": {
      "index": 116,
      "name": "아래석거리",
      "lat": 37.8579667,
      "lon": 127.3559333
    },
    "GGB239000133": {
      "index": 117,
      "name": "신상1리회관",
      "lat": 37.8387333,
      "lon": 127.35345
    },
    "GGB239000134": {
      "index": 118,
      "name": "안곡사거리",
      "lat": 37.82765,
      "lon": 127.3477333
    },
    "GGB239000135": {
      "index": 119,
      "name": "마일2리",
      "lat": 37.8264333,
      "lon": 127.3839333
    },
    "GGB239000136": {
      "index": 120,
      "name": "마을회관",
      "lat": 37.8241167,
      "lon": 127.3818667
    },
    "GGB239000137": {
      "index": 121,
      "name": "구회관앞",
      "lat": 37.8211333,
      "lon": 127.37955
    },
    "GGB239000138": {
      "index": 122,
      "name": "대보1리입구",
      "lat": 37.8193667,
      "lon": 127.3562
    },
    "GGB239000140": {
      "index": 123,
      "name": "대보1리회관",
      "lat": 37.8101167,
      "lon": 127.3626333
    },
    "GGB239000141": {
      "index": 124,
      "name": "도장골입구",
      "lat": 37.8007167,
      "lon": 127.37325
    },
    "GGB239000143": {
      "index": 125,
      "name": "대보2리종점",
      "lat": 37.79935,
      "lon": 127.3915
    },
    "GGB239000144": {
      "index": 126,
      "name": "굼두리",
      "lat": 37.7965333,
      "lon": 127.3829333
    },
    "GGB239000145": {
      "index": 127,
      "name": "다부산마을",
      "lat": 37.7962333,
      "lon": 127.3703333
    },
    "GGB239000149": {
      "index": 128,
      "name": "고성리.현대백화점인재개발원",
      "lat": 37.71335,
      "lon": 127.5028167
    },
    "GGB239000151": {
      "index": 129,
      "name": "연안산입구",
      "lat": 37.8595833,
      "lon": 127.38905
    },
    "GGB239000152": {
      "index": 130,
      "name": "마일1리",
      "lat": 37.8474,
      "lon": 127.3748333
    },
    "GGB239000153": {
      "index": 131,
      "name": "이문안마을",
      "lat": 37.8336167,
      "lon": 127.3604667
    },
    "GGB239000154": {
      "index": 132,
      "name": "영양교앞",
      "lat": 37.8216,
      "lon": 127.35015
    },
    "GGB239000156": {
      "index": 133,
      "name": "태봉1리.여단앞",
      "lat": 37.7980833,
      "lon": 127.3365
    },
    "GGB239000157": {
      "index": 134,
      "name": "아랫벌마을",
      "lat": 37.7974,
      "lon": 127.3336
    },
    "GGB239000158": {
      "index": 135,
      "name": "태봉1리풍년가든",
      "lat": 37.7969333,
      "lon": 127.3293167
    },
    "GGB239000159": {
      "index": 136,
      "name": "상동리회관",
      "lat": 37.7931667,
      "lon": 127.3229
    },
    "GGB239000160": {
      "index": 137,
      "name": "돌아우마을",
      "lat": 37.7925,
      "lon": 127.3207167
    },
    "GGB239000161": {
      "index": 138,
      "name": "돌아우마을",
      "lat": 37.7925833,
      "lon": 127.3205667
    },
    "GGB239000163": {
      "index": 139,
      "name": "연하2리",
      "lat": 37.8045,
      "lon": 127.3511
    },
    "GGB239000164": {
      "index": 140,
      "name": "연하리",
      "lat": 37.8054,
      "lon": 127.35595
    },
    "GGB239000165": {
      "index": 141,
      "name": "스위스마을",
      "lat": 37.6659167,
      "lon": 127.45085
    },
    "GGB239000166": {
      "index": 142,
      "name": "행현교",
      "lat": 37.7688167,
      "lon": 127.3679333
    },
    "GGB239000167": {
      "index": 143,
      "name": "행현2리",
      "lat": 37.7663333,
      "lon": 127.3635167
    },
    "GGB239000168": {
      "index": 144,
      "name": "비령이",
      "lat": 37.7626833,
      "lon": 127.36325
    },
    "GGB239000170": {
      "index": 145,
      "name": "취옹예술관",
      "lat": 37.7531833,
      "lon": 127.3601833
    },
    "GGB239000171": {
      "index": 146,
      "name": "2반카페거리",
      "lat": 37.7597667,
      "lon": 127.3617833
    },
    "GGB239000172": {
      "index": 147,
      "name": "행현2리입구",
      "lat": 37.7674,
      "lon": 127.36455
    },
    "GGB239000173": {
      "index": 148,
      "name": "행현교",
      "lat": 37.7689167,
      "lon": 127.368
    },
    "GGB239000174": {
      "index": 149,
      "name": "신청평대교",
      "lat": 37.7243833,
      "lon": 127.4080333
    },
    "GGB239000176": {
      "index": 150,
      "name": "수리재입구",
      "lat": 37.7706167,
      "lon": 127.4416833
    },
    "GGB239000178": {
      "index": 151,
      "name": "구사골마을",
      "lat": 37.7825,
      "lon": 127.43595
    },
    "GGB239000179": {
      "index": 152,
      "name": "수리재종점",
      "lat": 37.7922833,
      "lon": 127.4330833
    },
    "GGB239000180": {
      "index": 153,
      "name": "구사골마을",
      "lat": 37.7826,
      "lon": 127.4359667
    },
    "GGB239000181": {
      "index": 154,
      "name": "수리재입구",
      "lat": 37.7706667,
      "lon": 127.4417167
    },
    "GGB239000182": {
      "index": 155,
      "name": "검문소",
      "lat": 37.7472,
      "lon": 127.428
    },
    "GGB239000183": {
      "index": 156,
      "name": "청평산장호텔",
      "lat": 37.7491667,
      "lon": 127.4214167
    },
    "GGB239000185": {
      "index": 157,
      "name": "산장국민관광지",
      "lat": 37.75535,
      "lon": 127.4103
    },
    "GGB239000186": {
      "index": 158,
      "name": "다원리",
      "lat": 37.7541333,
      "lon": 127.4065167
    },
    "GGB239000187": {
      "index": 159,
      "name": "가평사계절썰매장",
      "lat": 37.7573833,
      "lon": 127.4031333
    },
    "GGB239000188": {
      "index": 160,
      "name": "구정동입구",
      "lat": 37.7575667,
      "lon": 127.3969167
    },
    "GGB239000189": {
      "index": 161,
      "name": "덕현리",
      "lat": 37.7625167,
      "lon": 127.39325
    },
    "GGB239000190": {
      "index": 162,
      "name": "함명학원",
      "lat": 37.7686833,
      "lon": 127.3844333
    },
    "GGB239000191": {
      "index": 163,
      "name": "개누리고개",
      "lat": 37.7788667,
      "lon": 127.3701833
    },
    "GGB239000192": {
      "index": 164,
      "name": "항사리",
      "lat": 37.79275,
      "lon": 127.3665833
    },
    "GGB239000193": {
      "index": 165,
      "name": "보람어린이집",
      "lat": 37.7967,
      "lon": 127.3653167
    },
    "GGB239000194": {
      "index": 166,
      "name": "교육대앞",
      "lat": 37.8109333,
      "lon": 127.3518167
    },
    "GGB239000195": {
      "index": 167,
      "name": "조종중고교앞",
      "lat": 37.8143833,
      "lon": 127.3498667
    },
    "GGB239000196": {
      "index": 168,
      "name": "서낭당골",
      "lat": 37.6610333,
      "lon": 127.4429833
    },
    "GGB239000197": {
      "index": 169,
      "name": "석사울삼거리",
      "lat": 37.8223333,
      "lon": 127.34375
    },
    "GGB239000198": {
      "index": 170,
      "name": "조종중고교앞",
      "lat": 37.81425,
      "lon": 127.35015
    },
    "GGB239000199": {
      "index": 171,
      "name": "연등벌",
      "lat": 37.8116,
      "lon": 127.35165
    },
    "GGB239000200": {
      "index": 172,
      "name": "보람어린이집",
      "lat": 37.7968167,
      "lon": 127.3654167
    },
    "GGB239000201": {
      "index": 173,
      "name": "항사리",
      "lat": 37.7927333,
      "lon": 127.3667833
    },
    "GGB239000202": {
      "index": 174,
      "name": "임초리",
      "lat": 37.7739833,
      "lon": 127.3718833
    },
    "GGB239000203": {
      "index": 175,
      "name": "서대마을",
      "lat": 37.7719167,
      "lon": 127.3780333
    },
    "GGB239000204": {
      "index": 176,
      "name": "함명학원",
      "lat": 37.7684167,
      "lon": 127.3848667
    },
    "GGB239000205": {
      "index": 177,
      "name": "덕현리",
      "lat": 37.7624,
      "lon": 127.3936833
    },
    "GGB239000206": {
      "index": 178,
      "name": "가평사계절썰매장",
      "lat": 37.7576167,
      "lon": 127.4031833
    },
    "GGB239000208": {
      "index": 179,
      "name": "서낭당골",
      "lat": 37.6610167,
      "lon": 127.4430333
    },
    "GGB239000209": {
      "index": 180,
      "name": "청평중학교",
      "lat": 37.7424833,
      "lon": 127.4242333
    },
    "GGB239000210": {
      "index": 181,
      "name": "청평터미널",
      "lat": 37.7381667,
      "lon": 127.4205667
    },
    "GGB239000211": {
      "index": 182,
      "name": "삼거리.시장",
      "lat": 37.7358167,
      "lon": 127.4155833
    },
    "GGB239000212": {
      "index": 183,
      "name": "대성1리",
      "lat": 37.72435,
      "lon": 127.4083667
    },
    "GGB239000215": {
      "index": 184,
      "name": "대성리역",
      "lat": 37.6842333,
      "lon": 127.3787333
    },
    "GGB239000216": {
      "index": 185,
      "name": "대성리MT장",
      "lat": 37.6813333,
      "lon": 127.3779333
    },
    "GGB239000217": {
      "index": 186,
      "name": "대성리MT장",
      "lat": 37.6810667,
      "lon": 127.3776
    },
    "GGB239000218": {
      "index": 187,
      "name": "대성리역",
      "lat": 37.68385,
      "lon": 127.3783833
    },
    "GGB239000219": {
      "index": 188,
      "name": "관터마을",
      "lat": 37.6901667,
      "lon": 127.3806167
    },
    "GGB239000220": {
      "index": 189,
      "name": "원대성리",
      "lat": 37.6967167,
      "lon": 127.3836333
    },
    "GGB239000221": {
      "index": 190,
      "name": "중앙기도원",
      "lat": 37.70915,
      "lon": 127.3938167
    },
    "GGB239000222": {
      "index": 191,
      "name": "소돌마을",
      "lat": 37.7209167,
      "lon": 127.4029833
    },
    "GGB239000223": {
      "index": 192,
      "name": "윗소돌말",
      "lat": 37.7263,
      "lon": 127.4067167
    },
    "GGB239000224": {
      "index": 193,
      "name": "시장입구",
      "lat": 37.7359,
      "lon": 127.4153667
    },
    "GGB239000225": {
      "index": 194,
      "name": "청평농협",
      "lat": 37.7367833,
      "lon": 127.4176833
    },
    "GGB239000226": {
      "index": 195,
      "name": "청평중학교",
      "lat": 37.7421167,
      "lon": 127.4237
    },
    "GGB239000227": {
      "index": 196,
      "name": "검문소",
      "lat": 37.7494667,
      "lon": 127.4306167
    },
    "GGB239000228": {
      "index": 197,
      "name": "하천리",
      "lat": 37.7535667,
      "lon": 127.4347167
    },
    "GGB239000229": {
      "index": 198,
      "name": "유답촌",
      "lat": 37.75775,
      "lon": 127.4363667
    },
    "GGB239000231": {
      "index": 199,
      "name": "상천역입구",
      "lat": 37.7722167,
      "lon": 127.4512667
    },
    "GGB239000232": {
      "index": 200,
      "name": "삼봉터",
      "lat": 37.7746667,
      "lon": 127.4584833
    },
    "GGB239000233": {
      "index": 201,
      "name": "초옥동",
      "lat": 37.7787667,
      "lon": 127.4639833
    },
    "GGB239000234": {
      "index": 202,
      "name": "벌태봉",
      "lat": 37.8022,
      "lon": 127.4853333
    },
    "GGB239000235": {
      "index": 203,
      "name": "두밀리입구",
      "lat": 37.80375,
      "lon": 127.4870167
    },
    "GGB239000236": {
      "index": 204,
      "name": "하색리",
      "lat": 37.81175,
      "lon": 127.4979833
    },
    "GGB239000237": {
      "index": 205,
      "name": "하색1리",
      "lat": 37.8117667,
      "lon": 127.4982333
    },
    "GGB239000238": {
      "index": 206,
      "name": "상색리",
      "lat": 37.79615,
      "lon": 127.4795167
    },
    "GGB239000239": {
      "index": 207,
      "name": "초옥동",
      "lat": 37.77915,
      "lon": 127.4644333
    },
    "GGB239000240": {
      "index": 208,
      "name": "삼봉터",
      "lat": 37.7749833,
      "lon": 127.45975
    },
    "GGB239000241": {
      "index": 209,
      "name": "상천역입구",
      "lat": 37.7726,
      "lon": 127.4529667
    },
    "GGB239000242": {
      "index": 210,
      "name": "수리재입구",
      "lat": 37.768,
      "lon": 127.4474333
    },
    "GGB239000243": {
      "index": 211,
      "name": "유답촌",
      "lat": 37.7585,
      "lon": 127.437
    },
    "GGB239000244": {
      "index": 212,
      "name": "검문소",
      "lat": 37.7482167,
      "lon": 127.4298
    },
    "GGB239000246": {
      "index": 213,
      "name": "큰골",
      "lat": 37.6963833,
      "lon": 127.3917
    },
    "GGB239000247": {
      "index": 214,
      "name": "삼회분교앞",
      "lat": 37.6999,
      "lon": 127.39445
    },
    "GGB239000248": {
      "index": 215,
      "name": "마이다스호텔앞",
      "lat": 37.7146167,
      "lon": 127.4057
    },
    "GGB239000249": {
      "index": 216,
      "name": "발전소",
      "lat": 37.7226833,
      "lon": 127.4216667
    },
    "GGB239000250": {
      "index": 217,
      "name": "바하마",
      "lat": 37.7193,
      "lon": 127.4325333
    },
    "GGB239000251": {
      "index": 218,
      "name": "해방촌",
      "lat": 37.7148,
      "lon": 127.44075
    },
    "GGB239000252": {
      "index": 219,
      "name": "가래골",
      "lat": 37.7112167,
      "lon": 127.4449
    },
    "GGB239000253": {
      "index": 220,
      "name": "뽀루봉",
      "lat": 37.7210333,
      "lon": 127.4278333
    },
    "GGB239000254": {
      "index": 221,
      "name": "쇳골",
      "lat": 37.7045,
      "lon": 127.39735
    },
    "GGB239000255": {
      "index": 222,
      "name": "아래퇴주",
      "lat": 37.6817167,
      "lon": 127.388
    },
    "GGB239000256": {
      "index": 223,
      "name": "사기막",
      "lat": 37.6675333,
      "lon": 127.3812
    },
    "GGB239000257": {
      "index": 224,
      "name": "야밀",
      "lat": 37.6609333,
      "lon": 127.38025
    },
    "GGB239000258": {
      "index": 225,
      "name": "다락재",
      "lat": 37.6582667,
      "lon": 127.4425667
    },
    "GGB239000259": {
      "index": 226,
      "name": "멱골",
      "lat": 37.9065667,
      "lon": 127.5717667
    },
    "GGB239000260": {
      "index": 227,
      "name": "멱골마을",
      "lat": 37.9121667,
      "lon": 127.5754333
    },
    "GGB239000261": {
      "index": 228,
      "name": "싸리재종점",
      "lat": 37.9014333,
      "lon": 127.5876833
    },
    "GGB239000262": {
      "index": 229,
      "name": "모리펜션",
      "lat": 37.8998667,
      "lon": 127.584
    },
    "GGB239000263": {
      "index": 230,
      "name": "싸리재마을",
      "lat": 37.8974167,
      "lon": 127.5782
    },
    "GGB239000264": {
      "index": 231,
      "name": "싸리재입구",
      "lat": 37.8966667,
      "lon": 127.57105
    },
    "GGB239000265": {
      "index": 232,
      "name": "등지거리",
      "lat": 37.9276167,
      "lon": 127.56445
    },
    "GGB239000266": {
      "index": 233,
      "name": "바깥마을",
      "lat": 37.9333,
      "lon": 127.5631
    },
    "GGB239000268": {
      "index": 234,
      "name": "소법1리회관",
      "lat": 37.9004167,
      "lon": 127.55045
    },
    "GGB239000271": {
      "index": 235,
      "name": "범바위",
      "lat": 37.8900667,
      "lon": 127.5470667
    },
    "GGB239000272": {
      "index": 236,
      "name": "목동터미널",
      "lat": 37.8869167,
      "lon": 127.5491167
    },
    "GGB239000273": {
      "index": 237,
      "name": "당무마을",
      "lat": 37.8634,
      "lon": 127.5287
    },
    "GGB239000274": {
      "index": 238,
      "name": "능머루",
      "lat": 37.8666333,
      "lon": 127.5327667
    },
    "GGB239000276": {
      "index": 239,
      "name": "개곡2리",
      "lat": 37.8686667,
      "lon": 127.5512167
    },
    "GGB239000277": {
      "index": 240,
      "name": "개곡2리마을회관",
      "lat": 37.8686,
      "lon": 127.55515
    },
    "GGB239000278": {
      "index": 241,
      "name": "개곡리종점",
      "lat": 37.8714,
      "lon": 127.56155
    },
    "GGB239000279": {
      "index": 242,
      "name": "개곡2리",
      "lat": 37.8685833,
      "lon": 127.5514333
    },
    "GGB239000280": {
      "index": 243,
      "name": "안골다리앞",
      "lat": 37.8701167,
      "lon": 127.5380667
    },
    "GGB239000282": {
      "index": 244,
      "name": "가평터미널",
      "lat": 37.8246333,
      "lon": 127.5153333
    },
    "GGB239000283": {
      "index": 245,
      "name": "가평읍내주공아파트",
      "lat": 37.83245,
      "lon": 127.5119167
    },
    "GGB239000284": {
      "index": 246,
      "name": "보건소",
      "lat": 37.8338333,
      "lon": 127.5112833
    },
    "GGB239000285": {
      "index": 247,
      "name": "가골",
      "lat": 37.8762667,
      "lon": 127.5396667
    },
    "GGB239000286": {
      "index": 248,
      "name": "목동초등학교",
      "lat": 37.8800667,
      "lon": 127.54615
    },
    "GGB239000287": {
      "index": 249,
      "name": "농공단지앞",
      "lat": 37.89405,
      "lon": 127.5573333
    },
    "GGB239000288": {
      "index": 250,
      "name": "성황당",
      "lat": 37.8972167,
      "lon": 127.5607833
    },
    "GGB239000289": {
      "index": 251,
      "name": "화악삼거리",
      "lat": 37.9254,
      "lon": 127.56675
    },
    "GGB239000290": {
      "index": 252,
      "name": "토골마을",
      "lat": 37.93705,
      "lon": 127.5707167
    },
    "GGB239000292": {
      "index": 253,
      "name": "양지마을",
      "lat": 37.94365,
      "lon": 127.5754333
    },
    "GGB239000293": {
      "index": 254,
      "name": "홍적광산앞",
      "lat": 37.9480167,
      "lon": 127.57665
    },
    "GGB239000294": {
      "index": 255,
      "name": "홍적종점",
      "lat": 37.9513167,
      "lon": 127.5779333
    },
    "GGB239000295": {
      "index": 256,
      "name": "신당마을",
      "lat": 37.9286167,
      "lon": 127.5681333
    },
    "GGB239000297": {
      "index": 257,
      "name": "소법2리",
      "lat": 37.9112833,
      "lon": 127.5626167
    },
    "GGB239000298": {
      "index": 258,
      "name": "천리골",
      "lat": 37.9058167,
      "lon": 127.56245
    },
    "GGB239000301": {
      "index": 259,
      "name": "보건소",
      "lat": 37.8337,
      "lon": 127.5115
    },
    "GGB239000302": {
      "index": 260,
      "name": "가평읍내주공아파트",
      "lat": 37.83235,
      "lon": 127.5120833
    },
    "GGB239000303": {
      "index": 261,
      "name": "동연재마을",
      "lat": 37.8085667,
      "lon": 127.5241833
    },
    "GGB239000304": {
      "index": 262,
      "name": "달전1리회관",
      "lat": 37.8112833,
      "lon": 127.5202833
    },
    "GGB239000305": {
      "index": 263,
      "name": "새청삼거리",
      "lat": 37.8124333,
      "lon": 127.5185667
    },
    "GGB239000306": {
      "index": 264,
      "name": "새청삼거리",
      "lat": 37.8126,
      "lon": 127.51855
    },
    "GGB239000307": {
      "index": 265,
      "name": "3반상회앞",
      "lat": 37.81125,
      "lon": 127.5214667
    },
    "GGB239000308": {
      "index": 266,
      "name": "달전2리삼거리",
      "lat": 37.8105,
      "lon": 127.5225667
    },
    "GGB239000309": {
      "index": 267,
      "name": "동연재마을",
      "lat": 37.8087,
      "lon": 127.5243167
    },
    "GGB239000310": {
      "index": 268,
      "name": "금대리",
      "lat": 37.76575,
      "lon": 127.5373333
    },
    "GGB239000311": {
      "index": 269,
      "name": "금대리회관",
      "lat": 37.7573167,
      "lon": 127.5358333
    },
    "GGB239000312": {
      "index": 270,
      "name": "복장포초교",
      "lat": 37.7424167,
      "lon": 127.51045
    },
    "GGB239000313": {
      "index": 271,
      "name": "산유리",
      "lat": 37.7564333,
      "lon": 127.51195
    },
    "GGB239000314": {
      "index": 272,
      "name": "이화리회관",
      "lat": 37.7962167,
      "lon": 127.5116667
    },
    "GGB239000316": {
      "index": 273,
      "name": "가평오거리",
      "lat": 37.81975,
      "lon": 127.5139
    },
    "GGB239000317": {
      "index": 274,
      "name": "가평오거리",
      "lat": 37.8199833,
      "lon": 127.5140167
    },
    "GGB239000318": {
      "index": 275,
      "name": "가평고등학교",
      "lat": 37.8180333,
      "lon": 127.5146667
    },
    "GGB239000319": {
      "index": 276,
      "name": "현충탑",
      "lat": 37.8135,
      "lon": 127.515
    },
    "GGB239000320": {
      "index": 277,
      "name": "이화삼거리",
      "lat": 37.79945,
      "lon": 127.5130333
    },
    "GGB239000321": {
      "index": 278,
      "name": "중간말",
      "lat": 37.7927167,
      "lon": 127.5107833
    },
    "GGB239000322": {
      "index": 279,
      "name": "이화리",
      "lat": 37.7852667,
      "lon": 127.5097667
    },
    "GGB239000324": {
      "index": 280,
      "name": "산유리",
      "lat": 37.7563833,
      "lon": 127.5120333
    },
    "GGB239000325": {
      "index": 281,
      "name": "산유리유동",
      "lat": 37.7493833,
      "lon": 127.5139667
    },
    "GGB239000326": {
      "index": 282,
      "name": "복장포초교",
      "lat": 37.74235,
      "lon": 127.5105333
    },
    "GGB239000328": {
      "index": 283,
      "name": "호명리",
      "lat": 37.7169167,
      "lon": 127.4584667
    },
    "GGB239000329": {
      "index": 284,
      "name": "양진마을",
      "lat": 37.7140333,
      "lon": 127.4848333
    },
    "GGB239000331": {
      "index": 285,
      "name": "복장리회관",
      "lat": 37.7369,
      "lon": 127.504
    },
    "GGB239000332": {
      "index": 286,
      "name": "양진마을",
      "lat": 37.71055,
      "lon": 127.48165
    },
    "GGB239000333": {
      "index": 287,
      "name": "호명리",
      "lat": 37.71685,
      "lon": 127.4585
    },
    "GGB239000335": {
      "index": 288,
      "name": "남이오거리",
      "lat": 37.8201333,
      "lon": 127.5128667
    },
    "GGB239000337": {
      "index": 289,
      "name": "다락재",
      "lat": 37.6582167,
      "lon": 127.4425167
    },
    "GGB239000338": {
      "index": 290,
      "name": "설악축협",
      "lat": 37.6768333,
      "lon": 127.4940333
    },
    "GGB239000341": {
      "index": 291,
      "name": "미사리윗마을",
      "lat": 37.69935,
      "lon": 127.5399667
    },
    "GGB239000342": {
      "index": 292,
      "name": "미사리윗마을",
      "lat": 37.6995167,
      "lon": 127.5401
    },
    "GGB239000343": {
      "index": 293,
      "name": "송산2리",
      "lat": 37.7207167,
      "lon": 127.5262333
    },
    "GGB239000344": {
      "index": 294,
      "name": "미사리양지마을",
      "lat": 37.7009167,
      "lon": 127.5393333
    },
    "GGB239000345": {
      "index": 295,
      "name": "미사리양지마을",
      "lat": 37.70085,
      "lon": 127.5395
    },
    "GGB239000346": {
      "index": 296,
      "name": "미사1리회관",
      "lat": 37.7034,
      "lon": 127.5396667
    },
    "GGB239000347": {
      "index": 297,
      "name": "미사리마을회관",
      "lat": 37.7074333,
      "lon": 127.5397333
    },
    "GGB239000348": {
      "index": 298,
      "name": "미사리종점",
      "lat": 37.71375,
      "lon": 127.5413167
    },
    "GGB239000349": {
      "index": 299,
      "name": "미사1리회관",
      "lat": 37.7034667,
      "lon": 127.5397667
    },
    "GGB239000352": {
      "index": 300,
      "name": "울업마을",
      "lat": 37.68485,
      "lon": 127.4927667
    },
    "GGB239000354": {
      "index": 301,
      "name": "울업마을",
      "lat": 37.6850333,
      "lon": 127.49295
    },
    "GGB239000355": {
      "index": 302,
      "name": "다리앞",
      "lat": 37.6509833,
      "lon": 127.4944833
    },
    "GGB239000356": {
      "index": 303,
      "name": "엄소회관",
      "lat": 37.6481667,
      "lon": 127.4973167
    },
    "GGB239000357": {
      "index": 304,
      "name": "엄소리상촌",
      "lat": 37.64715,
      "lon": 127.5007667
    },
    "GGB239000359": {
      "index": 305,
      "name": "엄소회관",
      "lat": 37.6482167,
      "lon": 127.4971833
    },
    "GGB239000360": {
      "index": 306,
      "name": "다리앞",
      "lat": 37.6508,
      "lon": 127.4945667
    },
    "GGB239000361": {
      "index": 307,
      "name": "신포마을",
      "lat": 37.6749667,
      "lon": 127.50065
    },
    "GGB239000362": {
      "index": 308,
      "name": "창의리",
      "lat": 37.66995,
      "lon": 127.5072333
    },
    "GGB239000363": {
      "index": 309,
      "name": "창말입구",
      "lat": 37.6692167,
      "lon": 127.5132667
    },
    "GGB239000364": {
      "index": 310,
      "name": "응달말입구.위곡2리",
      "lat": 37.6713333,
      "lon": 127.5186
    },
    "GGB239000366": {
      "index": 311,
      "name": "위곡1리회관",
      "lat": 37.67135,
      "lon": 127.5289
    },
    "GGB239000368": {
      "index": 312,
      "name": "창말입구",
      "lat": 37.6690333,
      "lon": 127.51295
    },
    "GGB239000369": {
      "index": 313,
      "name": "창의리",
      "lat": 37.6698,
      "lon": 127.5073
    },
    "GGB239000370": {
      "index": 314,
      "name": "천안1리",
      "lat": 37.6409333,
      "lon": 127.4774
    },
    "GGB239000371": {
      "index": 315,
      "name": "불기마을",
      "lat": 37.6363,
      "lon": 127.4813167
    },
    "GGB239000372": {
      "index": 316,
      "name": "뽕나무거리",
      "lat": 37.6414667,
      "lon": 127.4763333
    },
    "GGB239000373": {
      "index": 317,
      "name": "초롱마을",
      "lat": 37.6453333,
      "lon": 127.5028833
    },
    "GGB239000374": {
      "index": 318,
      "name": "설악터미널",
      "lat": 37.6775833,
      "lon": 127.4878
    },
    "GGB239000375": {
      "index": 319,
      "name": "꽃넘이길펜션마을입구",
      "lat": 37.8959,
      "lon": 127.5276
    },
    "GGB239000376": {
      "index": 320,
      "name": "양지말",
      "lat": 37.7051167,
      "lon": 127.4486167
    },
    "GGB239000377": {
      "index": 321,
      "name": "안골",
      "lat": 37.7009167,
      "lon": 127.4546333
    },
    "GGB239000378": {
      "index": 322,
      "name": "큰골",
      "lat": 37.7006,
      "lon": 127.4572333
    },
    "GGB239000379": {
      "index": 323,
      "name": "솔고개",
      "lat": 37.67715,
      "lon": 127.4703333
    },
    "GGB239000381": {
      "index": 324,
      "name": "설악5일시장",
      "lat": 37.6772,
      "lon": 127.4925167
    },
    "GGB239000382": {
      "index": 325,
      "name": "한교막",
      "lat": 37.67175,
      "lon": 127.4905833
    },
    "GGB239000383": {
      "index": 326,
      "name": "상천리보건진료소",
      "lat": 37.7882333,
      "lon": 127.43195
    },
    "GGB239000384": {
      "index": 327,
      "name": "신천4리인내",
      "lat": 37.6569333,
      "lon": 127.4803167
    },
    "GGB239000385": {
      "index": 328,
      "name": "한우재",
      "lat": 37.6491333,
      "lon": 127.4762167
    },
    "GGB239000386": {
      "index": 329,
      "name": "한우재",
      "lat": 37.6494333,
      "lon": 127.4764167
    },
    "GGB239000387": {
      "index": 330,
      "name": "솔고개",
      "lat": 37.6773,
      "lon": 127.4700667
    },
    "GGB239000388": {
      "index": 331,
      "name": "한글마을",
      "lat": 37.6489667,
      "lon": 127.5185167
    },
    "GGB239000389": {
      "index": 332,
      "name": "삼밭골",
      "lat": 37.6875333,
      "lon": 127.46455
    },
    "GGB239000390": {
      "index": 333,
      "name": "안골",
      "lat": 37.7008167,
      "lon": 127.45465
    },
    "GGB239000391": {
      "index": 334,
      "name": "양지말",
      "lat": 37.70485,
      "lon": 127.4485833
    },
    "GGB239000392": {
      "index": 335,
      "name": "회곡리",
      "lat": 37.70785,
      "lon": 127.4491
    },
    "GGB239000393": {
      "index": 336,
      "name": "상천리보건진료소",
      "lat": 37.7883,
      "lon": 127.432
    },
    "GGB239000394": {
      "index": 337,
      "name": "무지개마을",
      "lat": 37.78585,
      "lon": 127.4335
    },
    "GGB239000395": {
      "index": 338,
      "name": "무지개마을",
      "lat": 37.7858333,
      "lon": 127.43345
    },
    "GGB239000397": {
      "index": 339,
      "name": "조항마을",
      "lat": 37.60425,
      "lon": 127.52485
    },
    "GGB239000398": {
      "index": 340,
      "name": "묵안리",
      "lat": 37.6034333,
      "lon": 127.5329
    },
    "GGB239000399": {
      "index": 341,
      "name": "묵안리종점",
      "lat": 37.5966333,
      "lon": 127.5396833
    },
    "GGB239000400": {
      "index": 342,
      "name": "묵안리",
      "lat": 37.60335,
      "lon": 127.5329167
    },
    "GGB239000402": {
      "index": 343,
      "name": "버싯게",
      "lat": 37.6110833,
      "lon": 127.52225
    },
    "GGB239000403": {
      "index": 344,
      "name": "동면마을",
      "lat": 37.6223333,
      "lon": 127.5155167
    },
    "GGB239000404": {
      "index": 345,
      "name": "설곡회관",
      "lat": 37.6211333,
      "lon": 127.51955
    },
    "GGB239000405": {
      "index": 346,
      "name": "소설마을",
      "lat": 37.6182333,
      "lon": 127.5255667
    },
    "GGB239000406": {
      "index": 347,
      "name": "성곡마을",
      "lat": 37.61685,
      "lon": 127.5363833
    },
    "GGB239000407": {
      "index": 348,
      "name": "소설마을",
      "lat": 37.6181833,
      "lon": 127.52555
    },
    "GGB239000408": {
      "index": 349,
      "name": "설곡회관",
      "lat": 37.6210667,
      "lon": 127.51955
    },
    "GGB239000409": {
      "index": 350,
      "name": "동면",
      "lat": 37.6222333,
      "lon": 127.5155
    },
    "GGB239000410": {
      "index": 351,
      "name": "위곡3리회관",
      "lat": 37.6558667,
      "lon": 127.51665
    },
    "GGB239000411": {
      "index": 352,
      "name": "위곡3리",
      "lat": 37.6591167,
      "lon": 127.5167167
    },
    "GGB239000413": {
      "index": 353,
      "name": "북배산등산로",
      "lat": 37.93135,
      "lon": 127.5687
    },
    "GGB239000414": {
      "index": 354,
      "name": "은혜마을.사랑마을",
      "lat": 37.63885,
      "lon": 127.5135
    },
    "GGB239000415": {
      "index": 355,
      "name": "구정마을",
      "lat": 37.6315333,
      "lon": 127.5093333
    },
    "GGB239000416": {
      "index": 356,
      "name": "널미재",
      "lat": 37.6622167,
      "lon": 127.5429833
    },
    "GGB239000417": {
      "index": 357,
      "name": "널미재",
      "lat": 37.6621333,
      "lon": 127.5428167
    },
    "GGB239000418": {
      "index": 358,
      "name": "유명산종점",
      "lat": 37.5954,
      "lon": 127.4906167
    },
    "GGB239000419": {
      "index": 359,
      "name": "천안1리뇌암",
      "lat": 37.6322167,
      "lon": 127.4845167
    },
    "GGB239000420": {
      "index": 360,
      "name": "방일리",
      "lat": 37.62325,
      "lon": 127.4951167
    },
    "GGB239000421": {
      "index": 361,
      "name": "전위골",
      "lat": 37.6182,
      "lon": 127.4914833
    },
    "GGB239000422": {
      "index": 362,
      "name": "가일1리",
      "lat": 37.6073167,
      "lon": 127.4923667
    },
    "GGB239000423": {
      "index": 363,
      "name": "가일리삼거리",
      "lat": 37.6005667,
      "lon": 127.4931
    },
    "GGB239000424": {
      "index": 364,
      "name": "어비산장앞",
      "lat": 37.59765,
      "lon": 127.5053167
    },
    "GGB239000425": {
      "index": 365,
      "name": "대리종점",
      "lat": 37.5956,
      "lon": 127.5095
    },
    "GGB239000426": {
      "index": 366,
      "name": "가인만당",
      "lat": 37.5977833,
      "lon": 127.4972833
    },
    "GGB239000428": {
      "index": 367,
      "name": "북배산등산로",
      "lat": 37.9313667,
      "lon": 127.5686
    },
    "GGB239000430": {
      "index": 368,
      "name": "계량리",
      "lat": 37.8406167,
      "lon": 127.5065333
    },
    "GGB239000432": {
      "index": 369,
      "name": "마장1리",
      "lat": 37.8535833,
      "lon": 127.5063167
    },
    "GGB239000433": {
      "index": 370,
      "name": "송정",
      "lat": 37.8567833,
      "lon": 127.5088333
    },
    "GGB239000434": {
      "index": 371,
      "name": "마장초교",
      "lat": 37.8583833,
      "lon": 127.5161
    },
    "GGB239000435": {
      "index": 372,
      "name": "노루목고개",
      "lat": 37.8672167,
      "lon": 127.5213667
    },
    "GGB239000436": {
      "index": 373,
      "name": "등무터",
      "lat": 37.87385,
      "lon": 127.5232333
    },
    "GGB239000437": {
      "index": 374,
      "name": "가골",
      "lat": 37.8761833,
      "lon": 127.5396833
    },
    "GGB239000438": {
      "index": 375,
      "name": "목동초등학교",
      "lat": 37.8800167,
      "lon": 127.54625
    },
    "GGB239000439": {
      "index": 376,
      "name": "제령리정미소",
      "lat": 37.89415,
      "lon": 127.5397333
    },
    "GGB239000441": {
      "index": 377,
      "name": "제령리약수터",
      "lat": 37.9014667,
      "lon": 127.51785
    },
    "GGB239000443": {
      "index": 378,
      "name": "백둔리입구",
      "lat": 37.8989167,
      "lon": 127.5040833
    },
    "GGB239000444": {
      "index": 379,
      "name": "오목벌",
      "lat": 37.9106333,
      "lon": 127.49445
    },
    "GGB239000445": {
      "index": 380,
      "name": "오목골",
      "lat": 37.9182167,
      "lon": 127.4964667
    },
    "GGB239000446": {
      "index": 381,
      "name": "명지산입구",
      "lat": 37.9354667,
      "lon": 127.4897333
    },
    "GGB239000447": {
      "index": 382,
      "name": "선바위",
      "lat": 37.9393833,
      "lon": 127.48765
    },
    "GGB239000448": {
      "index": 383,
      "name": "미약골",
      "lat": 37.9646333,
      "lon": 127.4681333
    },
    "GGB239000449": {
      "index": 384,
      "name": "백자동유원지",
      "lat": 37.9659167,
      "lon": 127.4643667
    },
    "GGB239000450": {
      "index": 385,
      "name": "명화동삼거리",
      "lat": 37.9694167,
      "lon": 127.4589333
    },
    "GGB239000451": {
      "index": 386,
      "name": "소락개마을",
      "lat": 37.965,
      "lon": 127.4444167
    },
    "GGB239000452": {
      "index": 387,
      "name": "성관사",
      "lat": 37.9638333,
      "lon": 127.4487833
    },
    "GGB239000453": {
      "index": 388,
      "name": "명지분교",
      "lat": 37.9705333,
      "lon": 127.4553
    },
    "GGB239000454": {
      "index": 389,
      "name": "가림마을",
      "lat": 37.9767,
      "lon": 127.4437
    },
    "GGB239000455": {
      "index": 390,
      "name": "바깥말",
      "lat": 37.9544167,
      "lon": 127.4757833
    },
    "GGB239000456": {
      "index": 391,
      "name": "명지산참숯",
      "lat": 37.9528333,
      "lon": 127.4773167
    },
    "GGB239000458": {
      "index": 392,
      "name": "대촌마을",
      "lat": 37.9246667,
      "lon": 127.4941667
    },
    "GGB239000459": {
      "index": 393,
      "name": "가둘기",
      "lat": 37.9000333,
      "lon": 127.5117
    },
    "GGB239000460": {
      "index": 394,
      "name": "제령리상촌",
      "lat": 37.8964833,
      "lon": 127.5287333
    },
    "GGB239000461": {
      "index": 395,
      "name": "모내골",
      "lat": 37.7688,
      "lon": 127.539
    },
    "GGB239000462": {
      "index": 396,
      "name": "제령리마을회관앞",
      "lat": 37.8951167,
      "lon": 127.5332333
    },
    "GGB239000464": {
      "index": 397,
      "name": "가골하촌",
      "lat": 37.8766667,
      "lon": 127.5343667
    },
    "GGB239000465": {
      "index": 398,
      "name": "가평군농협",
      "lat": 37.82915,
      "lon": 127.51395
    },
    "GGB239000466": {
      "index": 399,
      "name": "태봉1리풍년가든",
      "lat": 37.797,
      "lon": 127.32935
    },
    "GGB239000467": {
      "index": 400,
      "name": "상동리회관",
      "lat": 37.79325,
      "lon": 127.3228667
    },
    "GGB239000468": {
      "index": 401,
      "name": "연하초교",
      "lat": 37.80185,
      "lon": 127.3446333
    },
    "GGB239000469": {
      "index": 402,
      "name": "꽃넘이길삼거리",
      "lat": 37.8981,
      "lon": 127.52325
    },
    "GGB239000470": {
      "index": 403,
      "name": "불기종점",
      "lat": 37.7797667,
      "lon": 127.28375
    },
    "GGB239000471": {
      "index": 404,
      "name": "신상3리회관",
      "lat": 37.8356,
      "lon": 127.3367333
    },
    "GGB239000473": {
      "index": 405,
      "name": "운악산.현등사입구",
      "lat": 37.8645833,
      "lon": 127.3502167
    },
    "GGB239000474": {
      "index": 406,
      "name": "와곡",
      "lat": 37.868,
      "lon": 127.3546167
    },
    "GGB239000475": {
      "index": 407,
      "name": "노체.꽃동네입구",
      "lat": 37.8744,
      "lon": 127.3577667
    },
    "GGB239000476": {
      "index": 408,
      "name": "행정마을",
      "lat": 37.8962,
      "lon": 127.369
    },
    "GGB239000477": {
      "index": 409,
      "name": "샘말",
      "lat": 37.90505,
      "lon": 127.3794333
    },
    "GGB239000478": {
      "index": 410,
      "name": "다락터",
      "lat": 37.91955,
      "lon": 127.3904167
    },
    "GGB239000479": {
      "index": 411,
      "name": "장재울",
      "lat": 37.9136167,
      "lon": 127.3834833
    },
    "GGB239000480": {
      "index": 412,
      "name": "상판리회관",
      "lat": 37.9014167,
      "lon": 127.3728333
    },
    "GGB239000481": {
      "index": 413,
      "name": "우목골(현리방면)",
      "lat": 37.8866167,
      "lon": 127.3652667
    },
    "GGB239000482": {
      "index": 414,
      "name": "노체2교앞",
      "lat": 37.8794167,
      "lon": 127.3599833
    },
    "GGB239000483": {
      "index": 415,
      "name": "만나교회",
      "lat": 37.8605833,
      "lon": 127.3503167
    },
    "GGB239000484": {
      "index": 416,
      "name": "아래석거리",
      "lat": 37.85795,
      "lon": 127.3557833
    },
    "GGB239000485": {
      "index": 417,
      "name": "신상2리회관",
      "lat": 37.8479167,
      "lon": 127.3553833
    },
    "GGB239000486": {
      "index": 418,
      "name": "신상1리회관",
      "lat": 37.8386667,
      "lon": 127.3532667
    },
    "GGB239000489": {
      "index": 419,
      "name": "검문소",
      "lat": 37.7472833,
      "lon": 127.4281167
    },
    "GGB239000490": {
      "index": 420,
      "name": "비둘기산장",
      "lat": 37.7559,
      "lon": 127.4146833
    },
    "GGB239000491": {
      "index": 421,
      "name": "산장국민관광지",
      "lat": 37.7554333,
      "lon": 127.41015
    },
    "GGB239000492": {
      "index": 422,
      "name": "다원리",
      "lat": 37.7540667,
      "lon": 127.4060667
    },
    "GGB239000494": {
      "index": 423,
      "name": "서대마을",
      "lat": 37.7718167,
      "lon": 127.3781333
    },
    "GGB239000495": {
      "index": 424,
      "name": "고재입구",
      "lat": 37.7153667,
      "lon": 127.50175
    },
    "GGB239000496": {
      "index": 425,
      "name": "고재",
      "lat": 37.7047667,
      "lon": 127.51475
    },
    "GGB239000497": {
      "index": 426,
      "name": "물골입구",
      "lat": 37.8287833,
      "lon": 127.3190167
    },
    "GGB239000498": {
      "index": 427,
      "name": "이곡리",
      "lat": 37.8728833,
      "lon": 127.52205
    },
    "GGB239000499": {
      "index": 428,
      "name": "율길삼거리",
      "lat": 37.83185,
      "lon": 127.2920667
    },
    "GGB239000500": {
      "index": 429,
      "name": "안전유원지",
      "lat": 37.73345,
      "lon": 127.4234
    },
    "GGB239000501": {
      "index": 430,
      "name": "취옹예술관",
      "lat": 37.7532167,
      "lon": 127.36005
    },
    "GGB239000502": {
      "index": 431,
      "name": "두리개",
      "lat": 37.75555,
      "lon": 127.3606167
    },
    "GGB239000504": {
      "index": 432,
      "name": "설악5일시장",
      "lat": 37.6771667,
      "lon": 127.4921667
    },
    "GGB239000505": {
      "index": 433,
      "name": "산포마을",
      "lat": 37.67495,
      "lon": 127.5005167
    },
    "GGB239000506": {
      "index": 434,
      "name": "꽃넘이길펜션마을중앙",
      "lat": 37.8973,
      "lon": 127.52505
    },
    "GGB239000507": {
      "index": 435,
      "name": "원대성리",
      "lat": 37.6965833,
      "lon": 127.3838667
    },
    "GGB239000508": {
      "index": 436,
      "name": "향군회관",
      "lat": 37.8272667,
      "lon": 127.5165667
    },
    "GGB239000509": {
      "index": 437,
      "name": "인내",
      "lat": 37.6568667,
      "lon": 127.4801833
    },
    "GGB239000510": {
      "index": 438,
      "name": "한교막(양평방면)",
      "lat": 37.6724,
      "lon": 127.49105
    },
    "GGB239000511": {
      "index": 439,
      "name": "얼음골",
      "lat": 37.8263667,
      "lon": 127.4444
    },
    "GGB239000513": {
      "index": 440,
      "name": "천안1리",
      "lat": 37.6319333,
      "lon": 127.4845833
    },
    "GGB239000514": {
      "index": 441,
      "name": "가일1리",
      "lat": 37.6073,
      "lon": 127.4922167
    },
    "GGB239000516": {
      "index": 442,
      "name": "당골입구",
      "lat": 37.71005,
      "lon": 127.5405167
    },
    "GGB239000518": {
      "index": 443,
      "name": "회곡리",
      "lat": 37.7079167,
      "lon": 127.4491833
    },
    "GGB239000519": {
      "index": 444,
      "name": "사기막",
      "lat": 37.6672667,
      "lon": 127.3809667
    },
    "GGB239000520": {
      "index": 445,
      "name": "야밀",
      "lat": 37.6606167,
      "lon": 127.3802333
    },
    "GGB239000521": {
      "index": 446,
      "name": "개누리고개",
      "lat": 37.7792333,
      "lon": 127.3703667
    },
    "GGB239000522": {
      "index": 447,
      "name": "현리시장앞",
      "lat": 37.8184333,
      "lon": 127.3484
    },
    "GGB239000523": {
      "index": 448,
      "name": "붉은뱅이",
      "lat": 37.8160833,
      "lon": 127.4543333
    },
    "GGB239000524": {
      "index": 449,
      "name": "얼음골",
      "lat": 37.8263333,
      "lon": 127.4443833
    },
    "GGB239000525": {
      "index": 450,
      "name": "상면초교",
      "lat": 37.77345,
      "lon": 127.3723
    },
    "GGB239000526": {
      "index": 451,
      "name": "양진말",
      "lat": 37.71395,
      "lon": 127.4848333
    },
    "GGB239000527": {
      "index": 452,
      "name": "양진마을",
      "lat": 37.71055,
      "lon": 127.48145
    },
    "GGB239000528": {
      "index": 453,
      "name": "청평농협",
      "lat": 37.7367167,
      "lon": 127.4178333
    },
    "GGB239000529": {
      "index": 454,
      "name": "상면초교앞",
      "lat": 37.7733833,
      "lon": 127.3719333
    },
    "GGB239000530": {
      "index": 455,
      "name": "행현2리",
      "lat": 37.7662833,
      "lon": 127.3636167
    },
    "GGB239000532": {
      "index": 456,
      "name": "청평8리마을회관",
      "lat": 37.7329833,
      "lon": 127.4149833
    },
    "GGB239000533": {
      "index": 457,
      "name": "팔각정",
      "lat": 37.7282,
      "lon": 127.4072
    },
    "GGB239000534": {
      "index": 458,
      "name": "송천리",
      "lat": 37.6939833,
      "lon": 127.364
    },
    "GGB239000535": {
      "index": 459,
      "name": "한얼산기도원",
      "lat": 37.7196667,
      "lon": 127.4030667
    },
    "GGB239000536": {
      "index": 460,
      "name": "팔각정",
      "lat": 37.7289667,
      "lon": 127.40905
    },
    "GGB239000537": {
      "index": 461,
      "name": "청평고등학교.청수아파트",
      "lat": 37.7323667,
      "lon": 127.4100167
    },
    "GGB239000538": {
      "index": 462,
      "name": "버들치팬션마을",
      "lat": 37.81435,
      "lon": 127.4684
    },
    "GGB239000539": {
      "index": 463,
      "name": "탐선리",
      "lat": 37.6764833,
      "lon": 127.4794667
    },
    "GGB239000540": {
      "index": 464,
      "name": "가평고등학교",
      "lat": 37.8178667,
      "lon": 127.5144333
    },
    "GGB239000541": {
      "index": 465,
      "name": "자라목입구",
      "lat": 37.83095,
      "lon": 127.5164167
    },
    "GGB239000542": {
      "index": 466,
      "name": "달전2리삼거리",
      "lat": 37.8102167,
      "lon": 127.5227667
    },
    "GGB239000545": {
      "index": 467,
      "name": "현충탑",
      "lat": 37.81365,
      "lon": 127.51475
    },
    "GGB239000546": {
      "index": 468,
      "name": "이화삼거리",
      "lat": 37.7993833,
      "lon": 127.5128167
    },
    "GGB239000547": {
      "index": 469,
      "name": "중간말",
      "lat": 37.7927333,
      "lon": 127.5108667
    },
    "GGB239000548": {
      "index": 470,
      "name": "이화리",
      "lat": 37.7852667,
      "lon": 127.5097
    },
    "GGB239000549": {
      "index": 471,
      "name": "갈치골",
      "lat": 37.7626833,
      "lon": 127.5107
    },
    "GGB239000550": {
      "index": 472,
      "name": "산유리유동",
      "lat": 37.7493,
      "lon": 127.5136667
    },
    "GGB239000551": {
      "index": 473,
      "name": "금대리회관",
      "lat": 37.75745,
      "lon": 127.5360833
    },
    "GGB239000552": {
      "index": 474,
      "name": "이화리회관",
      "lat": 37.7961833,
      "lon": 127.5117167
    },
    "GGB239000554": {
      "index": 475,
      "name": "산유리유동",
      "lat": 37.7492,
      "lon": 127.5138833
    },
    "GGB239000555": {
      "index": 476,
      "name": "제령리마을회관",
      "lat": 37.8947,
      "lon": 127.52975
    },
    "GGB239000556": {
      "index": 477,
      "name": "가평군농협",
      "lat": 37.8291833,
      "lon": 127.5140833
    },
    "GGB239000557": {
      "index": 478,
      "name": "비행장",
      "lat": 37.8369333,
      "lon": 127.509
    },
    "GGB239000558": {
      "index": 479,
      "name": "읍내10리",
      "lat": 37.8386333,
      "lon": 127.5072333
    },
    "GGB239000559": {
      "index": 480,
      "name": "횟불회관",
      "lat": 37.8396167,
      "lon": 127.5013833
    },
    "GGB239000560": {
      "index": 481,
      "name": "경반리입구",
      "lat": 37.83875,
      "lon": 127.4989
    },
    "GGB239000562": {
      "index": 482,
      "name": "점말마을",
      "lat": 37.8427333,
      "lon": 127.48975
    },
    "GGB239000563": {
      "index": 483,
      "name": "신천말",
      "lat": 37.84595,
      "lon": 127.48945
    },
    "GGB239000566": {
      "index": 484,
      "name": "농공단지앞",
      "lat": 37.8939833,
      "lon": 127.5573833
    },
    "GGB239000567": {
      "index": 485,
      "name": "용추폭포",
      "lat": 37.8554,
      "lon": 127.4815833
    },
    "GGB239000568": {
      "index": 486,
      "name": "서넘이",
      "lat": 37.8585167,
      "lon": 127.4825167
    },
    "GGB239000569": {
      "index": 487,
      "name": "바깥마을",
      "lat": 37.93335,
      "lon": 127.5631833
    },
    "GGB239000570": {
      "index": 488,
      "name": "버들치팬션마을",
      "lat": 37.8143,
      "lon": 127.4682667
    },
    "GGB239000571": {
      "index": 489,
      "name": "관사",
      "lat": 37.8449167,
      "lon": 127.4879667
    },
    "GGB239000573": {
      "index": 490,
      "name": "비행장",
      "lat": 37.8368167,
      "lon": 127.5089667
    },
    "GGB239000574": {
      "index": 491,
      "name": "안말",
      "lat": 37.93625,
      "lon": 127.5589333
    },
    "GGB239000576": {
      "index": 492,
      "name": "노씨터입구",
      "lat": 37.9499167,
      "lon": 127.5349
    },
    "GGB239000577": {
      "index": 493,
      "name": "신촌말",
      "lat": 37.9346333,
      "lon": 127.5426
    },
    "GGB239000578": {
      "index": 494,
      "name": "토골마을",
      "lat": 37.9369833,
      "lon": 127.5707833
    },
    "GGB239000579": {
      "index": 495,
      "name": "새말",
      "lat": 37.939,
      "lon": 127.5714333
    },
    "GGB239000580": {
      "index": 496,
      "name": "양지마을",
      "lat": 37.9435,
      "lon": 127.5754333
    },
    "GGB239000581": {
      "index": 497,
      "name": "홍적광산",
      "lat": 37.9479167,
      "lon": 127.5767167
    },
    "GGB239000583": {
      "index": 498,
      "name": "맴내마을",
      "lat": 37.9168667,
      "lon": 127.5635
    },
    "GGB239000586": {
      "index": 499,
      "name": "헌병대앞",
      "lat": 37.8447667,
      "lon": 127.5025833
    },
    "GGB239000587": {
      "index": 500,
      "name": "하남종",
      "lat": 37.9004,
      "lon": 127.56075
    },
    "GGB239000589": {
      "index": 501,
      "name": "부녀가게",
      "lat": 37.85235,
      "lon": 127.50155
    },
    "GGB239000590": {
      "index": 502,
      "name": "당무마을",
      "lat": 37.8633333,
      "lon": 127.52875
    },
    "GGB239000591": {
      "index": 503,
      "name": "능머루",
      "lat": 37.8665833,
      "lon": 127.5328833
    },
    "GGB239000592": {
      "index": 504,
      "name": "안말",
      "lat": 37.8691,
      "lon": 127.5357333
    },
    "GGB239000593": {
      "index": 505,
      "name": "안골다리",
      "lat": 37.8701833,
      "lon": 127.5380167
    },
    "GGB239000594": {
      "index": 506,
      "name": "개곡2리마을회관",
      "lat": 37.86855,
      "lon": 127.55515
    },
    "GGB239000595": {
      "index": 507,
      "name": "성황당",
      "lat": 37.8973333,
      "lon": 127.561
    },
    "GGB239000596": {
      "index": 508,
      "name": "화악삼거리",
      "lat": 37.9253333,
      "lon": 127.56685
    },
    "GGB239000597": {
      "index": 509,
      "name": "상색리.포회촌",
      "lat": 37.7967167,
      "lon": 127.48015
    },
    "GGB239000598": {
      "index": 510,
      "name": "남이오거리",
      "lat": 37.8199,
      "lon": 127.5130167
    },
    "GGB239000599": {
      "index": 511,
      "name": "성황당",
      "lat": 37.8974667,
      "lon": 127.5610333
    },
    "GGB239000600": {
      "index": 512,
      "name": "자라목입구",
      "lat": 37.8309667,
      "lon": 127.5165
    },
    "GGB239000601": {
      "index": 513,
      "name": "소법1리회관",
      "lat": 37.9005667,
      "lon": 127.5502167
    },
    "GGB239000602": {
      "index": 514,
      "name": "소법리빨래터",
      "lat": 37.8972667,
      "lon": 127.5504333
    },
    "GGB239000603": {
      "index": 515,
      "name": "가일리삼거리",
      "lat": 37.60065,
      "lon": 127.4930167
    },
    "GGB239000604": {
      "index": 516,
      "name": "가인만당앞",
      "lat": 37.5975667,
      "lon": 127.50525
    },
    "GGB239000605": {
      "index": 517,
      "name": "가인만당앞",
      "lat": 37.59795,
      "lon": 127.4969333
    },
    "GGB239000606": {
      "index": 518,
      "name": "불기마을",
      "lat": 37.6354833,
      "lon": 127.4818
    },
    "GGB239000607": {
      "index": 519,
      "name": "가평터미널",
      "lat": 37.8244333,
      "lon": 127.5154333
    },
    "GGB239000608": {
      "index": 520,
      "name": "로얄아파트",
      "lat": 37.73245,
      "lon": 127.4127667
    },
    "GGB239000609": {
      "index": 521,
      "name": "봉수리마을회관",
      "lat": 37.8531167,
      "lon": 127.2916667
    },
    "GGB239000610": {
      "index": 522,
      "name": "꽃넘이길종점",
      "lat": 37.8999833,
      "lon": 127.5165167
    },
    "GGB239000611": {
      "index": 523,
      "name": "레일바이크",
      "lat": 37.8289833,
      "lon": 127.5167667
    },
    "GGB239000612": {
      "index": 524,
      "name": "윗잣나무골",
      "lat": 37.6776833,
      "lon": 127.3855333
    },
    "GGB239000613": {
      "index": 525,
      "name": "효정매그놀리아국제병원",
      "lat": 37.6908333,
      "lon": 127.5211333
    },
    "GGB239000614": {
      "index": 526,
      "name": "한글마을",
      "lat": 37.6491,
      "lon": 127.5185333
    },
    "GGB239000616": {
      "index": 527,
      "name": "뽀루봉",
      "lat": 37.72115,
      "lon": 127.4278
    },
    "GGB239000618": {
      "index": 528,
      "name": "성운사",
      "lat": 37.83715,
      "lon": 127.3092167
    },
    "GGB239000619": {
      "index": 529,
      "name": "발전소",
      "lat": 37.7227167,
      "lon": 127.4222167
    },
    "GGB239000621": {
      "index": 530,
      "name": "설악터미널",
      "lat": 37.67755,
      "lon": 127.4877
    },
    "GGB239000622": {
      "index": 531,
      "name": "혜산진아파트",
      "lat": 37.8304,
      "lon": 127.2970167
    },
    "GGB239000623": {
      "index": 532,
      "name": "꿈에그린아파트",
      "lat": 37.809,
      "lon": 127.3528833
    },
    "GGB239000625": {
      "index": 533,
      "name": "혜산진아파트",
      "lat": 37.83045,
      "lon": 127.2974
    },
    "GGB239000626": {
      "index": 534,
      "name": "신팔1리서파검문소",
      "lat": 37.8454833,
      "lon": 127.28415
    },
    "GGB239000627": {
      "index": 535,
      "name": "중봉수리",
      "lat": 37.8526833,
      "lon": 127.2872833
    },
    "GGB239000630": {
      "index": 536,
      "name": "중봉수리",
      "lat": 37.8528167,
      "lon": 127.2872833
    },
    "GGB239000631": {
      "index": 537,
      "name": "하천리",
      "lat": 37.7534833,
      "lon": 127.4349167
    },
    "GGB239000633": {
      "index": 538,
      "name": "마이다스호텔앞",
      "lat": 37.7145667,
      "lon": 127.4058833
    },
    "GGB239000634": {
      "index": 539,
      "name": "쇳골",
      "lat": 37.7045667,
      "lon": 127.3972667
    },
    "GGB239000635": {
      "index": 540,
      "name": "삼회분교앞",
      "lat": 37.6998833,
      "lon": 127.3945667
    },
    "GGB239000636": {
      "index": 541,
      "name": "삼회1리회관",
      "lat": 37.69635,
      "lon": 127.3918167
    },
    "GGB239000638": {
      "index": 542,
      "name": "아래퇴주",
      "lat": 37.6816833,
      "lon": 127.38785
    },
    "GGB239000640": {
      "index": 543,
      "name": "은혜마을.사랑마을",
      "lat": 37.6389167,
      "lon": 127.5134167
    },
    "GGB239000641": {
      "index": 544,
      "name": "구정마을",
      "lat": 37.6316,
      "lon": 127.5092167
    },
    "GGB239000643": {
      "index": 545,
      "name": "유스토리수련원",
      "lat": 37.9023667,
      "lon": 127.4797833
    },
    "GGB239000644": {
      "index": 546,
      "name": "유스토리수련원",
      "lat": 37.9022833,
      "lon": 127.4797333
    },
    "GGB239000645": {
      "index": 547,
      "name": "한터마을",
      "lat": 37.9045167,
      "lon": 127.4763667
    },
    "GGB239000646": {
      "index": 548,
      "name": "고암입구",
      "lat": 37.9043833,
      "lon": 127.4692167
    },
    "GGB239000647": {
      "index": 549,
      "name": "잣나무골",
      "lat": 37.9025667,
      "lon": 127.4667167
    },
    "GGB239000648": {
      "index": 550,
      "name": "연인산캠핑장",
      "lat": 37.9024667,
      "lon": 127.4610167
    },
    "GGB239000649": {
      "index": 551,
      "name": "연인산입구",
      "lat": 37.9031833,
      "lon": 127.4581833
    },
    "GGB239000650": {
      "index": 552,
      "name": "평반",
      "lat": 37.9041333,
      "lon": 127.4543667
    },
    "GGB239000653": {
      "index": 553,
      "name": "명장마을(설악방향)",
      "lat": 37.6707333,
      "lon": 127.48795
    },
    "GGB239000654": {
      "index": 554,
      "name": "명장마을(양평방향)",
      "lat": 37.6707833,
      "lon": 127.4877
    },
    "GGB239000655": {
      "index": 555,
      "name": "가일리",
      "lat": 37.6049,
      "lon": 127.4931667
    },
    "GGB239000656": {
      "index": 556,
      "name": "회관앞",
      "lat": 37.8042333,
      "lon": 127.4828333
    },
    "GGB239000657": {
      "index": 557,
      "name": "태봉마을",
      "lat": 37.8049833,
      "lon": 127.4797667
    },
    "GGB239000658": {
      "index": 558,
      "name": "진양마을",
      "lat": 37.80925,
      "lon": 127.4746833
    },
    "GGB239000660": {
      "index": 559,
      "name": "새밀종점",
      "lat": 37.8274667,
      "lon": 127.4410333
    },
    "GGB239000663": {
      "index": 560,
      "name": "두밀삼거리",
      "lat": 37.8161333,
      "lon": 127.4579333
    },
    "GGB239000664": {
      "index": 561,
      "name": "태봉1리.여단앞",
      "lat": 37.7981333,
      "lon": 127.3363333
    },
    "GGB239000665": {
      "index": 562,
      "name": "아랫벌마을",
      "lat": 37.7974833,
      "lon": 127.3335667
    },
    "GGB239000666": {
      "index": 563,
      "name": "신상교.산월랑입구",
      "lat": 37.84425,
      "lon": 127.35615
    },
    "GGB239000667": {
      "index": 564,
      "name": "신상교.산월랑입구",
      "lat": 37.8442167,
      "lon": 127.35605
    },
    "GGB239000668": {
      "index": 565,
      "name": "속골마을입구",
      "lat": 37.6551333,
      "lon": 127.4889
    },
    "GGB239000669": {
      "index": 566,
      "name": "도장골입구",
      "lat": 37.80065,
      "lon": 127.3733333
    },
    "GGB239000670": {
      "index": 567,
      "name": "다부산마을",
      "lat": 37.7963167,
      "lon": 127.3704333
    },
    "GGB239000671": {
      "index": 568,
      "name": "마을회관",
      "lat": 37.8241333,
      "lon": 127.3817833
    },
    "GGB239000672": {
      "index": 569,
      "name": "갈치고개",
      "lat": 37.7733333,
      "lon": 127.50895
    },
    "GGB239000675": {
      "index": 570,
      "name": "간촌마을",
      "lat": 37.8302833,
      "lon": 127.3591333
    },
    "GGB239000676": {
      "index": 571,
      "name": "작은예수회입구",
      "lat": 37.8475167,
      "lon": 127.37465
    },
    "GGB239000677": {
      "index": 572,
      "name": "이문안마을",
      "lat": 37.8336333,
      "lon": 127.3603333
    },
    "GGB239000678": {
      "index": 573,
      "name": "갈치고개",
      "lat": 37.7730167,
      "lon": 127.5087667
    },
    "GGB239000679": {
      "index": 574,
      "name": "윗잣나무골",
      "lat": 37.6777167,
      "lon": 127.3854167
    },
    "GGB239000681": {
      "index": 575,
      "name": "송산리",
      "lat": 37.68645,
      "lon": 127.5265833
    },
    "GGB239000683": {
      "index": 576,
      "name": "화악삼거리",
      "lat": 37.9251833,
      "lon": 127.5666833
    },
    "GGB239000685": {
      "index": 577,
      "name": "유명산종점",
      "lat": 37.59535,
      "lon": 127.4908
    },
    "GGB239000686": {
      "index": 578,
      "name": "현리터미널",
      "lat": 37.8179333,
      "lon": 127.3486167
    },
    "GGB239000687": {
      "index": 579,
      "name": "현리터미널",
      "lat": 37.8178,
      "lon": 127.3484833
    },
    "GGB239000688": {
      "index": 580,
      "name": "현리시장앞",
      "lat": 37.81825,
      "lon": 127.3483167
    },
    "GGB239000689": {
      "index": 581,
      "name": "멱골",
      "lat": 37.9065667,
      "lon": 127.5718333
    },
    "GGB239000690": {
      "index": 582,
      "name": "새재골",
      "lat": 37.74505,
      "lon": 127.5229
    },
    "GGB239000691": {
      "index": 583,
      "name": "영천벌",
      "lat": 37.6505167,
      "lon": 127.4473667
    },
    "GGB239000692": {
      "index": 584,
      "name": "경반리윗말",
      "lat": 37.8316667,
      "lon": 127.4884
    },
    "GGB239000694": {
      "index": 585,
      "name": "가래골",
      "lat": 37.7110833,
      "lon": 127.4449
    },
    "GGB239000695": {
      "index": 586,
      "name": "해방촌",
      "lat": 37.7148,
      "lon": 127.4405167
    },
    "GGB239000696": {
      "index": 587,
      "name": "두밀리입구",
      "lat": 37.80235,
      "lon": 127.4860833
    },
    "GGB239000697": {
      "index": 588,
      "name": "설악축협",
      "lat": 37.6770167,
      "lon": 127.49395
    },
    "GGB239000698": {
      "index": 589,
      "name": "솔고개",
      "lat": 37.6764333,
      "lon": 127.4698333
    },
    "GGB239000699": {
      "index": 590,
      "name": "회곡2리회관",
      "lat": 37.67255,
      "lon": 127.46
    },
    "GGB239000700": {
      "index": 591,
      "name": "배치고개",
      "lat": 37.6649,
      "lon": 127.4470667
    },
    "GGB239000701": {
      "index": 592,
      "name": "이천리",
      "lat": 37.65705,
      "lon": 127.44755
    },
    "GGB239000702": {
      "index": 593,
      "name": "이천리",
      "lat": 37.6571333,
      "lon": 127.4476333
    },
    "GGB239000703": {
      "index": 594,
      "name": "배치고개",
      "lat": 37.6648333,
      "lon": 127.44705
    },
    "GGB239000705": {
      "index": 595,
      "name": "솔고개",
      "lat": 37.6763167,
      "lon": 127.4705
    },
    "GGB239000710": {
      "index": 596,
      "name": "청평고등학교",
      "lat": 37.7309667,
      "lon": 127.4139333
    },
    "GGB239000711": {
      "index": 597,
      "name": "세진빌라",
      "lat": 37.7671167,
      "lon": 127.37335
    },
    "GGB239000712": {
      "index": 598,
      "name": "새재골",
      "lat": 37.7452167,
      "lon": 127.5229333
    },
    "GGB239000713": {
      "index": 599,
      "name": "임초2리회관",
      "lat": 37.7650333,
      "lon": 127.3720333
    },
    "GGB239000714": {
      "index": 600,
      "name": "설악보건지소",
      "lat": 37.6756333,
      "lon": 127.494
    },
    "GGB239000716": {
      "index": 601,
      "name": "임초2리입구",
      "lat": 37.7690167,
      "lon": 127.3700833
    },
    "GGB239000717": {
      "index": 602,
      "name": "행현1리회관",
      "lat": 37.7738167,
      "lon": 127.3638667
    },
    "GGB239000719": {
      "index": 603,
      "name": "경골마을입구",
      "lat": 37.6247667,
      "lon": 127.5142667
    },
    "GGB239000721": {
      "index": 604,
      "name": "상천4리마을회관",
      "lat": 37.7694167,
      "lon": 127.45875
    },
    "GGB239000722": {
      "index": 605,
      "name": "호명호수제2주차장",
      "lat": 37.76335,
      "lon": 127.4826833
    },
    "GGB239000723": {
      "index": 606,
      "name": "호명호수제1주차장",
      "lat": 37.7610333,
      "lon": 127.4836667
    },
    "GGB239000724": {
      "index": 607,
      "name": "호명호수",
      "lat": 37.7508167,
      "lon": 127.4768833
    },
    "GGB239000725": {
      "index": 608,
      "name": "호명호수제1주차장",
      "lat": 37.7610833,
      "lon": 127.4837333
    },
    "GGB239000726": {
      "index": 609,
      "name": "호명호수제2주차장",
      "lat": 37.7632,
      "lon": 127.4827833
    },
    "GGB239000727": {
      "index": 610,
      "name": "상천4리마을회관",
      "lat": 37.76945,
      "lon": 127.4588333
    },
    "GGB239000728": {
      "index": 611,
      "name": "빗고개",
      "lat": 37.79315,
      "lon": 127.4687333
    },
    "GGB239000729": {
      "index": 612,
      "name": "대성리계곡",
      "lat": 37.6899,
      "lon": 127.36775
    },
    "GGB239000731": {
      "index": 613,
      "name": "대성리MT마을",
      "lat": 37.6859833,
      "lon": 127.3688333
    },
    "GGB239000732": {
      "index": 614,
      "name": "대성리MT마을",
      "lat": 37.6860167,
      "lon": 127.3690333
    },
    "GGB239000733": {
      "index": 615,
      "name": "수련원앞",
      "lat": 37.6836167,
      "lon": 127.3732
    },
    "GGB239000734": {
      "index": 616,
      "name": "수련원앞",
      "lat": 37.68375,
      "lon": 127.3732833
    },
    "GGB239000735": {
      "index": 617,
      "name": "대성리",
      "lat": 37.6806333,
      "lon": 127.37575
    },
    "GGB239000736": {
      "index": 618,
      "name": "대성리",
      "lat": 37.6807,
      "lon": 127.3758667
    },
    "GGB239000738": {
      "index": 619,
      "name": "청평터미널",
      "lat": 37.73825,
      "lon": 127.4206833
    },
    "GGB239000740": {
      "index": 620,
      "name": "경골마을입구",
      "lat": 37.6247333,
      "lon": 127.5141833
    },
    "GGB239000741": {
      "index": 621,
      "name": "제령리마을회관",
      "lat": 37.89475,
      "lon": 127.5297167
    },
    "GGB239000742": {
      "index": 622,
      "name": "쁘띠프랑스",
      "lat": 37.7148833,
      "lon": 127.4909833
    },
    "GGB239000743": {
      "index": 623,
      "name": "쁘띠프랑스",
      "lat": 37.7146167,
      "lon": 127.4909667
    },
    "GGB239000744": {
      "index": 624,
      "name": "방터",
      "lat": 37.7101667,
      "lon": 127.505
    },
    "GGB239000745": {
      "index": 625,
      "name": "방터",
      "lat": 37.7102833,
      "lon": 127.5049
    },
    "GGB239000747": {
      "index": 626,
      "name": "4반펜션촌",
      "lat": 37.7496167,
      "lon": 127.3562
    },
    "GGB239000748": {
      "index": 627,
      "name": "4반펜션촌",
      "lat": 37.7495667,
      "lon": 127.3563333
    },
    "GGB239000749": {
      "index": 628,
      "name": "수목원.종점",
      "lat": 37.74455,
      "lon": 127.3528
    },
    "GGB239000750": {
      "index": 629,
      "name": "한각골마을",
      "lat": 37.67805,
      "lon": 127.48425
    },
    "GGB239000751": {
      "index": 630,
      "name": "한각골마을",
      "lat": 37.6782,
      "lon": 127.48425
    },
    "GGB239000752": {
      "index": 631,
      "name": "가평군상수도사업소",
      "lat": 37.8059833,
      "lon": 127.5142167
    },
    "GGB239000753": {
      "index": 632,
      "name": "가평군상수도사업소",
      "lat": 37.80595,
      "lon": 127.51435
    },
    "GGB239000755": {
      "index": 633,
      "name": "안곡마을",
      "lat": 37.8318667,
      "lon": 127.3452833
    },
    "GGB239000756": {
      "index": 634,
      "name": "붉은뱅이",
      "lat": 37.8161833,
      "lon": 127.4544167
    },
    "GGB239000758": {
      "index": 635,
      "name": "청아빌라1차",
      "lat": 37.6866667,
      "lon": 127.5179167
    },
    "GGB239000759": {
      "index": 636,
      "name": "청아빌라1차",
      "lat": 37.6867333,
      "lon": 127.5181167
    },
    "GGB239000760": {
      "index": 637,
      "name": "청아빌라2차",
      "lat": 37.6860333,
      "lon": 127.4988333
    },
    "GGB239000761": {
      "index": 638,
      "name": "청아빌라2차",
      "lat": 37.6861333,
      "lon": 127.49885
    },
    "GGB239000762": {
      "index": 639,
      "name": "성산기도원",
      "lat": 37.9343333,
      "lon": 127.5556667
    },
    "GGB239000763": {
      "index": 640,
      "name": "성산기도원",
      "lat": 37.9344,
      "lon": 127.5559667
    },
    "GGB239000765": {
      "index": 641,
      "name": "별천유원지",
      "lat": 37.93295,
      "lon": 127.54795
    },
    "GGB239000766": {
      "index": 642,
      "name": "평온의집",
      "lat": 37.9422167,
      "lon": 127.5382333
    },
    "GGB239000767": {
      "index": 643,
      "name": "평온의집",
      "lat": 37.9419833,
      "lon": 127.5384167
    },
    "GGB239000768": {
      "index": 644,
      "name": "창공아파트앞",
      "lat": 37.88935,
      "lon": 127.5516333
    },
    "GGB239000769": {
      "index": 645,
      "name": "창공아파트앞",
      "lat": 37.8893667,
      "lon": 127.5515333
    },
    "GGB239000771": {
      "index": 646,
      "name": "화악2리마을회관",
      "lat": 37.9529,
      "lon": 127.5314667
    },
    "GGB239000772": {
      "index": 647,
      "name": "버드나무유원지",
      "lat": 37.9548833,
      "lon": 127.52885
    },
    "GGB239000774": {
      "index": 648,
      "name": "왕소나무",
      "lat": 37.9635333,
      "lon": 127.5267167
    },
    "GGB239000775": {
      "index": 649,
      "name": "왕소나무",
      "lat": 37.96345,
      "lon": 127.5270167
    },
    "GGB239000776": {
      "index": 650,
      "name": "건들레.종점",
      "lat": 37.97125,
      "lon": 127.5255833
    },
    "GGB239000777": {
      "index": 651,
      "name": "북한강마을입구",
      "lat": 37.7610167,
      "lon": 127.5377
    },
    "GGB239000778": {
      "index": 652,
      "name": "북한강마을입구",
      "lat": 37.7607167,
      "lon": 127.5377333
    },
    "GGB239000779": {
      "index": 653,
      "name": "하금대",
      "lat": 37.75315,
      "lon": 127.53505
    },
    "GGB239000780": {
      "index": 654,
      "name": "하금대",
      "lat": 37.7529667,
      "lon": 127.5351333
    },
    "GGB239000781": {
      "index": 655,
      "name": "가평수도원",
      "lat": 37.7507667,
      "lon": 127.5313833
    },
    "GGB239000782": {
      "index": 656,
      "name": "가평수도원",
      "lat": 37.7506,
      "lon": 127.5314
    },
    "GGB239000783": {
      "index": 657,
      "name": "강산여성요양병원",
      "lat": 37.7481,
      "lon": 127.5264333
    },
    "GGB239000784": {
      "index": 658,
      "name": "강산여성요양병원",
      "lat": 37.7479167,
      "lon": 127.5263833
    },
    "GGB239000785": {
      "index": 659,
      "name": "학산촌입구",
      "lat": 37.7398167,
      "lon": 127.5082833
    },
    "GGB239000787": {
      "index": 660,
      "name": "양수발전소입구",
      "lat": 37.7369833,
      "lon": 127.4986667
    },
    "GGB239000788": {
      "index": 661,
      "name": "현1리마을회관",
      "lat": 37.8201167,
      "lon": 127.3468333
    },
    "GGB239000789": {
      "index": 662,
      "name": "양수발전사택",
      "lat": 37.7397667,
      "lon": 127.5049667
    },
    "GGB239000790": {
      "index": 663,
      "name": "설악중고교앞",
      "lat": 37.682,
      "lon": 127.491
    },
    "GGB239000791": {
      "index": 664,
      "name": "설악중고교앞",
      "lat": 37.6824,
      "lon": 127.49125
    },
    "GGB239000792": {
      "index": 665,
      "name": "두메산골",
      "lat": 37.7442167,
      "lon": 127.3541833
    },
    "GGB239000794": {
      "index": 666,
      "name": "임초1리",
      "lat": 37.7499167,
      "lon": 127.3619167
    },
    "GGB239000795": {
      "index": 667,
      "name": "임초1리",
      "lat": 37.7498,
      "lon": 127.36195
    },
    "GGB239000797": {
      "index": 668,
      "name": "공감펜션앞",
      "lat": 37.7521167,
      "lon": 127.3673333
    },
    "GGB239000798": {
      "index": 669,
      "name": "임초1교",
      "lat": 37.7552833,
      "lon": 127.3698
    },
    "GGB239000799": {
      "index": 670,
      "name": "임초1교",
      "lat": 37.75505,
      "lon": 127.3698
    },
    "GGB239000800": {
      "index": 671,
      "name": "밤안골",
      "lat": 37.7608167,
      "lon": 127.3721167
    },
    "GGB239000801": {
      "index": 672,
      "name": "밤안골",
      "lat": 37.7607333,
      "lon": 127.3722167
    },
    "GGB239000802": {
      "index": 673,
      "name": "상남종",
      "lat": 37.9050833,
      "lon": 127.5597
    },
    "GGB239000803": {
      "index": 674,
      "name": "상남종",
      "lat": 37.9050167,
      "lon": 127.5597667
    },
    "GGB239000804": {
      "index": 675,
      "name": "방골",
      "lat": 37.73395,
      "lon": 127.5053333
    },
    "GGB239000805": {
      "index": 676,
      "name": "방골",
      "lat": 37.7341333,
      "lon": 127.5051667
    },
    "GGB239000806": {
      "index": 677,
      "name": "명지분교",
      "lat": 37.9704667,
      "lon": 127.45535
    },
    "GGB239000808": {
      "index": 678,
      "name": "구회관앞",
      "lat": 37.8211833,
      "lon": 127.3795
    },
    "GGB239000809": {
      "index": 679,
      "name": "미사리마을회관",
      "lat": 37.7071833,
      "lon": 127.5398167
    },
    "GGB239000810": {
      "index": 680,
      "name": "사기막.성주사",
      "lat": 37.7481167,
      "lon": 127.3537833
    },
    "GGB239000811": {
      "index": 681,
      "name": "사기막.성주사",
      "lat": 37.74795,
      "lon": 127.35385
    },
    "GGB239000812": {
      "index": 682,
      "name": "청평5일시장",
      "lat": 37.7342167,
      "lon": 127.4161167
    },
    "GGB239000813": {
      "index": 683,
      "name": "자라섬회전교차로",
      "lat": 37.8202333,
      "lon": 127.5173833
    },
    "GGB239000814": {
      "index": 684,
      "name": "한림의원",
      "lat": 37.8343333,
      "lon": 127.5092167
    },
    "GGB239000815": {
      "index": 685,
      "name": "한림의원",
      "lat": 37.8343667,
      "lon": 127.5094167
    },
    "GGB239000816": {
      "index": 686,
      "name": "가평군청",
      "lat": 37.8323833,
      "lon": 127.5099167
    },
    "GGB239000818": {
      "index": 687,
      "name": "가평역",
      "lat": 37.8137833,
      "lon": 127.5112
    },
    "GGB239000819": {
      "index": 688,
      "name": "자라섬회전교차로",
      "lat": 37.8203333,
      "lon": 127.5173
    },
    "GGB239000821": {
      "index": 689,
      "name": "자라섬",
      "lat": 37.8212333,
      "lon": 127.5209333
    },
    "GGB239000822": {
      "index": 690,
      "name": "가평역",
      "lat": 37.8136,
      "lon": 127.5115167
    },
    "GGB239000823": {
      "index": 691,
      "name": "절골",
      "lat": 37.9028833,
      "lon": 127.37575
    },
    "GGB239000824": {
      "index": 692,
      "name": "절골",
      "lat": 37.90285,
      "lon": 127.3758167
    },
    "GGB239000825": {
      "index": 693,
      "name": "새번동",
      "lat": 37.91095,
      "lon": 127.3821667
    },
    "GGB239000826": {
      "index": 694,
      "name": "새번동",
      "lat": 37.911,
      "lon": 127.3820333
    },
    "GGB239000827": {
      "index": 695,
      "name": "보아귀골",
      "lat": 37.9152667,
      "lon": 127.3879167
    },
    "GGB239000829": {
      "index": 696,
      "name": "행현1리입구",
      "lat": 37.76925,
      "lon": 127.3702333
    },
    "GGB239000830": {
      "index": 697,
      "name": "창말입구",
      "lat": 37.6690667,
      "lon": 127.51325
    },
    "GGB239000831": {
      "index": 698,
      "name": "가평이음터",
      "lat": 37.831,
      "lon": 127.5140333
    },
    "GGB239000832": {
      "index": 699,
      "name": "능골",
      "lat": 37.69735,
      "lon": 127.4592833
    },
    "GGB239000833": {
      "index": 700,
      "name": "능골",
      "lat": 37.69745,
      "lon": 127.4594167
    },
    "GGB239000834": {
      "index": 701,
      "name": "열린복지랜드",
      "lat": 37.6817,
      "lon": 127.4708667
    },
    "GGB239000835": {
      "index": 702,
      "name": "열린복지랜드",
      "lat": 37.6813,
      "lon": 127.4708333
    },
    "GGB239000836": {
      "index": 703,
      "name": "명장삼거리",
      "lat": 37.6679333,
      "lon": 127.4836833
    },
    "GGB239000837": {
      "index": 704,
      "name": "명장삼거리",
      "lat": 37.6673167,
      "lon": 127.4835667
    },
    "GGB239000839": {
      "index": 705,
      "name": "숙골",
      "lat": 37.653,
      "lon": 127.4818167
    },
    "GGB239000840": {
      "index": 706,
      "name": "가일리.동천마을",
      "lat": 37.6048,
      "lon": 127.49335
    },
    "GGB239000841": {
      "index": 707,
      "name": "강씨봉휴양림",
      "lat": 37.9688,
      "lon": 127.4133167
    },
    "GGB239000842": {
      "index": 708,
      "name": "한석봉도서관",
      "lat": 37.8289,
      "lon": 127.5072833
    },
    "GGB239000845": {
      "index": 709,
      "name": "상가둘기",
      "lat": 37.8958,
      "lon": 127.50815
    },
    "GGB239000846": {
      "index": 710,
      "name": "상가둘기",
      "lat": 37.89565,
      "lon": 127.5080333
    },
    "GGB239000847": {
      "index": 711,
      "name": "소뉘골",
      "lat": 37.9457333,
      "lon": 127.4816833
    },
    "GGB239000849": {
      "index": 712,
      "name": "명화동",
      "lat": 37.9683167,
      "lon": 127.4571167
    },
    "GGB239000850": {
      "index": 713,
      "name": "명화동",
      "lat": 37.9683833,
      "lon": 127.4570667
    },
    "GGB239000851": {
      "index": 714,
      "name": "텃바위",
      "lat": 37.9631,
      "lon": 127.4521333
    },
    "GGB239000852": {
      "index": 715,
      "name": "텃바위",
      "lat": 37.9633,
      "lon": 127.4521
    },
    "GGB239000854": {
      "index": 716,
      "name": "적목공원묘지앞",
      "lat": 37.9656,
      "lon": 127.4324167
    },
    "GGB239000855": {
      "index": 717,
      "name": "논남교앞",
      "lat": 37.9697167,
      "lon": 127.4272667
    },
    "GGB239000856": {
      "index": 718,
      "name": "논남교앞",
      "lat": 37.9698,
      "lon": 127.42725
    },
    "GGB239000857": {
      "index": 719,
      "name": "솔둔지",
      "lat": 37.98095,
      "lon": 127.44685
    },
    "GGB239000858": {
      "index": 720,
      "name": "솔둔지",
      "lat": 37.9808833,
      "lon": 127.4467667
    },
    "GGB239000859": {
      "index": 721,
      "name": "윗벌",
      "lat": 37.66155,
      "lon": 127.4810167
    },
    "GGB239000860": {
      "index": 722,
      "name": "윗벌",
      "lat": 37.6612,
      "lon": 127.4808667
    },
    "GGB239000861": {
      "index": 723,
      "name": "엄소리입구",
      "lat": 37.6552833,
      "lon": 127.4820833
    },
    "GGB239000862": {
      "index": 724,
      "name": "엄소리입구",
      "lat": 37.6552667,
      "lon": 127.4819333
    },
    "GGB239000863": {
      "index": 725,
      "name": "위곡2리",
      "lat": 37.6724667,
      "lon": 127.5223667
    },
    "GGB239000865": {
      "index": 726,
      "name": "흑암",
      "lat": 37.6689667,
      "lon": 127.5347167
    },
    "GGB239000866": {
      "index": 727,
      "name": "흑암",
      "lat": 37.6696,
      "lon": 127.53435
    },
    "GGB239000867": {
      "index": 728,
      "name": "벌미마을",
      "lat": 37.667,
      "lon": 127.5145833
    },
    "GGB239000868": {
      "index": 729,
      "name": "벌미마을",
      "lat": 37.6669833,
      "lon": 127.5145333
    },
    "GGB239000869": {
      "index": 730,
      "name": "청심빌리지",
      "lat": 37.68795,
      "lon": 127.51425
    },
    "GGB239000870": {
      "index": 731,
      "name": "청심빌리지",
      "lat": 37.68775,
      "lon": 127.5140667
    },
    "GGB239000871": {
      "index": 732,
      "name": "멱골마을",
      "lat": 37.9121667,
      "lon": 127.5754833
    },
    "GGB239000872": {
      "index": 733,
      "name": "북배산.작은멱골",
      "lat": 37.9144667,
      "lon": 127.5875
    },
    "GGB239000873": {
      "index": 734,
      "name": "논남",
      "lat": 37.9684,
      "lon": 127.42235
    },
    "GGB239000874": {
      "index": 735,
      "name": "가는골",
      "lat": 37.9675333,
      "lon": 127.4186167
    },
    "GGB239000876": {
      "index": 736,
      "name": "팔각정",
      "lat": 37.7285,
      "lon": 127.4090333
    },
    "GGB239000878": {
      "index": 737,
      "name": "잣나무골",
      "lat": 37.6748333,
      "lon": 127.3837167
    },
    "GGB239000879": {
      "index": 738,
      "name": "퇴주마을",
      "lat": 37.6918667,
      "lon": 127.3893833
    },
    "GGB239000880": {
      "index": 739,
      "name": "퇴주마을",
      "lat": 37.6919167,
      "lon": 127.3893
    },
    "GGB239000881": {
      "index": 740,
      "name": "상천낚시터",
      "lat": 37.7678333,
      "lon": 127.4747833
    },
    "GGB239000882": {
      "index": 741,
      "name": "상천낚시터",
      "lat": 37.7679,
      "lon": 127.4747833
    },
    "GGB239000883": {
      "index": 742,
      "name": "사그막입구",
      "lat": 37.8168,
      "lon": 127.5078667
    },
    "GGB239000885": {
      "index": 743,
      "name": "왕배",
      "lat": 37.6674833,
      "lon": 127.4531333
    },
    "GGB239000887": {
      "index": 744,
      "name": "두밀계곡",
      "lat": 37.8153667,
      "lon": 127.4518833
    },
    "GGB239000888": {
      "index": 745,
      "name": "불기골",
      "lat": 37.8141167,
      "lon": 127.4485833
    },
    "GGB239000889": {
      "index": 746,
      "name": "경반리5반마을회관",
      "lat": 37.8302667,
      "lon": 127.4896
    },
    "GGB239000890": {
      "index": 747,
      "name": "효신아파트",
      "lat": 37.8324833,
      "lon": 127.5061833
    },
    "GGB239000891": {
      "index": 748,
      "name": "불기골",
      "lat": 37.8140667,
      "lon": 127.4486333
    },
    "GGB239000892": {
      "index": 749,
      "name": "효신아파트",
      "lat": 37.8324667,
      "lon": 127.5063333
    },
    "GGB239000893": {
      "index": 750,
      "name": "에덴빌라4차",
      "lat": 37.8340833,
      "lon": 127.5060833
    },
    "GGB239000894": {
      "index": 751,
      "name": "제이정동빌라",
      "lat": 37.83905,
      "lon": 127.5055833
    },
    "GGB239000895": {
      "index": 752,
      "name": "연하1리",
      "lat": 37.8041,
      "lon": 127.3542167
    },
    "GGB239000896": {
      "index": 753,
      "name": "역촌",
      "lat": 37.7996,
      "lon": 127.34975
    },
    "GGB239000898": {
      "index": 754,
      "name": "한석봉도서관",
      "lat": 37.82895,
      "lon": 127.5074
    },
    "GGB239000900": {
      "index": 755,
      "name": "꽃동네",
      "lat": 37.8832667,
      "lon": 127.3557167
    },
    "GGB239000901": {
      "index": 756,
      "name": "태봉1리마을회관",
      "lat": 37.8017333,
      "lon": 127.3322167
    },
    "GGB239000902": {
      "index": 757,
      "name": "청평역",
      "lat": 37.7366833,
      "lon": 127.4274333
    },
    "GGB239000903": {
      "index": 758,
      "name": "청평역",
      "lat": 37.7361833,
      "lon": 127.4268167
    },
    "GGB239000905": {
      "index": 759,
      "name": "힐스테이트가평",
      "lat": 37.8354333,
      "lon": 127.5140333
    },
    "GGB239000907": {
      "index": 760,
      "name": "종합운동장",
      "lat": 37.8255667,
      "lon": 127.50865
    },
    "GGB239000908": {
      "index": 761,
      "name": "우림아파트",
      "lat": 37.8231,
      "lon": 127.5093
    },
    "GGB239000909": {
      "index": 762,
      "name": "우림아파트",
      "lat": 37.82315,
      "lon": 127.5094667
    },
    "GGB239000910": {
      "index": 763,
      "name": "선힐아파트",
      "lat": 37.82025,
      "lon": 127.5102833
    },
    "GGB239000911": {
      "index": 764,
      "name": "선힐아파트",
      "lat": 37.8203167,
      "lon": 127.5104333
    },
    "GGB239000914": {
      "index": 765,
      "name": "백둔리",
      "lat": 37.8980333,
      "lon": 127.4958
    },
    "GGB239000915": {
      "index": 766,
      "name": "백둔리",
      "lat": 37.8981167,
      "lon": 127.4958
    },
    "GGB239000916": {
      "index": 767,
      "name": "청평중학교.면사무소",
      "lat": 37.7414,
      "lon": 127.4245
    },
    "GGB239000917": {
      "index": 768,
      "name": "청평중학교.면사무소",
      "lat": 37.7415167,
      "lon": 127.4246
    },
    "GGB239000919": {
      "index": 769,
      "name": "청평3리마을회관",
      "lat": 37.7278833,
      "lon": 127.4117
    },
    "GGB239000925": {
      "index": 770,
      "name": "부대앞",
      "lat": 37.8426,
      "lon": 127.5051833
    },
    "GGB239000926": {
      "index": 771,
      "name": "부대앞",
      "lat": 37.8426167,
      "lon": 127.5053167
    },
    "GGB239000927": {
      "index": 772,
      "name": "큰멱골",
      "lat": 37.9206333,
      "lon": 127.581
    },
    "GGB239000928": {
      "index": 773,
      "name": "용수동종점",
      "lat": 37.98685,
      "lon": 127.4375833
    },
    "GGB239000935": {
      "index": 774,
      "name": "묵안1리마을회관",
      "lat": 37.6002,
      "lon": 127.5359333
    },
    "GGB239000936": {
      "index": 775,
      "name": "호명산슈퍼",
      "lat": 37.7713,
      "lon": 127.4523333
    },
    "GGB239000937": {
      "index": 776,
      "name": "가평역사거리",
      "lat": 37.81565,
      "lon": 127.5148333
    },
    "GGB239000941": {
      "index": 777,
      "name": "가평역사거리",
      "lat": 37.8151,
      "lon": 127.5138667
    },
    "GGB239000942": {
      "index": 778,
      "name": "이문안",
      "lat": 37.6284,
      "lon": 127.49075
    },
    "GGB239000943": {
      "index": 779,
      "name": "이문안",
      "lat": 37.6283167,
      "lon": 127.4905833
    },
    "GGB239000944": {
      "index": 780,
      "name": "용수골",
      "lat": 37.6168,
      "lon": 127.5272
    },
    "GGB239000945": {
      "index": 781,
      "name": "용수골",
      "lat": 37.61685,
      "lon": 127.5272167
    },
    "GGB239000948": {
      "index": 782,
      "name": "헛고개삼거리",
      "lat": 37.7648833,
      "lon": 127.53995
    },
    "GGB239000949": {
      "index": 783,
      "name": "헛고개삼거리",
      "lat": 37.7648167,
      "lon": 127.5399
    },
    "GGB239000951": {
      "index": 784,
      "name": "원당리",
      "lat": 37.7732167,
      "lon": 127.5351833
    },
    "GGB239000952": {
      "index": 785,
      "name": "이화리양지말",
      "lat": 37.7909333,
      "lon": 127.5106667
    },
    "GGB239000953": {
      "index": 786,
      "name": "이화리양지말",
      "lat": 37.7908167,
      "lon": 127.5108167
    },
    "GGB239000954": {
      "index": 787,
      "name": "위곡2리보건진료소",
      "lat": 37.6698333,
      "lon": 127.5150833
    },
    "GGB239000955": {
      "index": 788,
      "name": "위곡2리보건진료소",
      "lat": 37.6697667,
      "lon": 127.5151167
    },
    "GGB239000956": {
      "index": 789,
      "name": "상천역앞",
      "lat": 37.7698,
      "lon": 127.4536167
    },
    "GGB239000957": {
      "index": 790,
      "name": "상천역앞",
      "lat": 37.7700167,
      "lon": 127.4536833
    },
    "GGB239000958": {
      "index": 791,
      "name": "호명산슈퍼",
      "lat": 37.7712833,
      "lon": 127.4524667
    },
    "GGB239000959": {
      "index": 792,
      "name": "버섯구지마을",
      "lat": 37.8117833,
      "lon": 127.3684667
    },
    "GGB239000968": {
      "index": 793,
      "name": "산월랑삼거리",
      "lat": 37.8470333,
      "lon": 127.34815
    },
    "GGB239000969": {
      "index": 794,
      "name": "화악지암길",
      "lat": 37.9419,
      "lon": 127.5739167
    },
    "GGB239000971": {
      "index": 795,
      "name": "산월랑삼거리",
      "lat": 37.8469667,
      "lon": 127.34815
    },
    "GGB239000972": {
      "index": 796,
      "name": "북면행정복지센터",
      "lat": 37.8880167,
      "lon": 127.54995
    },
    "GGB239000973": {
      "index": 797,
      "name": "북면행정복지센터",
      "lat": 37.88805,
      "lon": 127.5498167
    },
    "GGB239000974": {
      "index": 798,
      "name": "복장포길",
      "lat": 37.7390167,
      "lon": 127.5013
    },
    "GGB239000975": {
      "index": 799,
      "name": "선촌1리",
      "lat": 37.68855,
      "lon": 127.4928
    },
    "GGB239000976": {
      "index": 800,
      "name": "선촌1리",
      "lat": 37.6883,
      "lon": 127.4931167
    },
    "GGB239000977": {
      "index": 801,
      "name": "여단앞",
      "lat": 37.8341833,
      "lon": 127.34455
    },
    "GGB239000978": {
      "index": 802,
      "name": "여단앞",
      "lat": 37.8345833,
      "lon": 127.3447167
    },
    "GGB239000984": {
      "index": 803,
      "name": "노비따스학교",
      "lat": 37.6425333,
      "lon": 127.5208
    },
    "GGB239000985": {
      "index": 804,
      "name": "노비따스학교",
      "lat": 37.6425167,
      "lon": 127.5208833
    },
    "GGB239000986": {
      "index": 805,
      "name": "생명의빛홈타운",
      "lat": 37.6236667,
      "lon": 127.5488833
    },
    "GGB239000987": {
      "index": 806,
      "name": "가평빠지",
      "lat": 37.7112167,
      "lon": 127.48805
    },
    "GGB239000988": {
      "index": 807,
      "name": "가평빠지",
      "lat": 37.7111167,
      "lon": 127.4881167
    },
    "GGB239000991": {
      "index": 808,
      "name": "현7리마을회관",
      "lat": 37.8218667,
      "lon": 127.34985
    },
    "GGB239000992": {
      "index": 809,
      "name": "현7리마을회관",
      "lat": 37.822,
      "lon": 127.3498833
    },
    "GGB239000996": {
      "index": 810,
      "name": "아침고요가족동물원",
      "lat": 37.7479,
      "lon": 127.36
    },
    "GGB239000997": {
      "index": 811,
      "name": "상면체육공원",
      "lat": 37.80325,
      "lon": 127.3480667
    }
  },
  "feature_description": "DRT demand probability (normalized)"
}